[{"key": "1", "latitude": 54.44574, "longitude": -0.755386, "name": "Egton Surgery"}, {"key": "4", "latitude": 51.663989, "longitude": -1.176774, "name": "Berinsfield Health Centre"}, {"key": "7", "latitude": 53.808917, "longitude": -1.506516, "name": "The Bellbrooke Surgery"}, {"key": "8", "latitude": 52.74754, "longitude": 0.406, "name": "Southgates Medical Centre"}, {"key": "9", "latitude": 53.28524, "longitude": -3.053222, "name": "Neston Surgery"}, {"key": "11", "latitude": 54.452005, "longitude": -0.659645, "name": "Churchfield Surgery"}, {"key": "13", "latitude": 51.402941, "longitude": -0.214807, "name": "The Cannon Hill Lane Medical Practice"}, {"key": "16", "latitude": 51.517355, "longitude": -0.069605, "name": "Spitalfields Practice"}, {"key": "19", "latitude": 53.851634, "longitude": -1.554111, "name": "The Surgery"}, {"key": "20", "latitude": 51.494331, "longitude": -0.173279, "name": "Drs Boreham & Rowley"}, {"key": "21", "latitude": 51.413052, "longitude": -2.61945, "name": "Grange Road Surgery"}, {"key": "22", "latitude": 51.689787, "longitude": -0.395031, "name": "Sheepcot Medical Centre"}, {"key": "23", "latitude": 53.779894, "longitude": -1.526509, "name": "The Whitfield Practice"}, {"key": "24", "latitude": 52.471024, "longitude": 1.716498, "name": "Victoria Road Surgery"}, {"key": "25", "latitude": 51.824927, "longitude": -1.238616, "name": "Islip Medical Practice"}, {"key": "27", "latitude": 53.375388, "longitude": -2.867143, "name": "Woolton House"}, {"key": "28", "latitude": 51.438261, "longitude": -1.080703, "name": "Theale Medical Centre"}, {"key": "32", "latitude": 51.59225, "longitude": -0.141215, "name": "Dukes Avenue Practice"}, {"key": "34", "latitude": 53.689286, "longitude": -1.024414, "name": "The Marshes"}, {"key": "35", "latitude": 54.006257, "longitude": -0.439676, "name": "The Medical Centre"}, {"key": "36", "latitude": 51.484951, "longitude": -2.587646, "name": "Gloucester Road Medical Centre"}, {"key": "37", "latitude": 54.285722, "longitude": -1.593125, "name": "Glebe House"}, {"key": "39", "latitude": 51.505338, "longitude": -0.058556, "name": "Wapping Health Centre"}, {"key": "40", "latitude": 51.519873, "longitude": 0.010674, "name": "Star Lane Medical Centre"}, {"key": "41", "latitude": 53.364407, "longitude": -2.911297, "name": "Grassendale Medical Practice"}, {"key": "42", "latitude": 53.810388, "longitude": -2.212859, "name": "Briercliffe Surgery"}, {"key": "43", "latitude": 52.785244, "longitude": 0.118301, "name": "Long Sutton Health Centre"}, {"key": "44", "latitude": 51.409204, "longitude": -0.733923, "name": "The Waterfield Practice"}, {"key": "45", "latitude": 54.954302, "longitude": -1.60628, "name": "Oxford Terrace Medical Centre"}, {"key": "47", "latitude": 53.846632, "longitude": -1.603988, "name": "The New Croft Surgery"}, {"key": "48", "latitude": 51.476288, "longitude": -0.03191, "name": "Amersham Vale Training Practice"}, {"key": "49", "latitude": 54.55391, "longitude": -0.886787, "name": "Woodside Surgery"}, {"key": "50", "latitude": 51.065536, "longitude": -2.078953, "name": "The Surgery"}, {"key": "51", "latitude": 51.837547, "longitude": 1.243916, "name": "Station Approach Surgery"}, {"key": "52", "latitude": 53.098813, "longitude": -2.45397, "name": "The Medical Centre"}, {"key": "53", "latitude": 52.814217, "longitude": -2.718404, "name": "The Clive Surgery"}, {"key": "55", "latitude": 51.51839, "longitude": -0.038112, "name": "Stepney Medical Practice"}, {"key": "56", "latitude": 51.573978, "longitude": -0.071467, "name": "Stamford Hill Group Practice"}, {"key": "57", "latitude": 52.573323, "longitude": 1.702402, "name": "Falklands Surgery"}, {"key": "58", "latitude": 51.495357, "longitude": -0.013513, "name": "Island Health"}, {"key": "59", "latitude": 53.876825, "longitude": -3.014553, "name": "The Village Practice"}, {"key": "60", "latitude": 54.23168, "longitude": -1.342391, "name": "Lambert Medical Centre"}, {"key": "61", "latitude": 52.324255, "longitude": -0.070142, "name": "Cromwell Place Surgery"}, {"key": "62", "latitude": 51.333297, "longitude": -0.362831, "name": "Oxshott Medical Practice"}, {"key": "64", "latitude": 51.784114, "longitude": -1.97844, "name": "The Surgery"}, {"key": "65", "latitude": 51.53874, "longitude": -0.907912, "name": "Bell Surgery"}, {"key": "70", "latitude": 51.004355, "longitude": -0.942602, "name": "The Swan Surgery"}, {"key": "73", "latitude": 52.577124, "longitude": 1.727734, "name": "The Central Surgery"}, {"key": "75", "latitude": 51.052976, "longitude": -2.420285, "name": "The Health Centre"}, {"key": "76", "latitude": 51.076576, "longitude": 1.159013, "name": "Sandgate Road Surgery"}, {"key": "77", "latitude": 51.382274, "longitude": -1.335762, "name": "The Falkland Surgery"}, {"key": "78", "latitude": 53.424112, "longitude": -2.928631, "name": "Green Lane Medical Centre"}, {"key": "79", "latitude": 51.340631, "longitude": -0.828228, "name": "The Oaklands Practice"}, {"key": "80", "latitude": 51.907843, "longitude": -1.150592, "name": "Victoria House Surgery"}, {"key": "82", "latitude": 54.230936, "longitude": -1.342786, "name": "The Health Centre"}, {"key": "84", "latitude": 53.427651, "longitude": -2.132367, "name": "Brinnington Health Centre"}, {"key": "85", "latitude": 53.728574, "longitude": -1.558358, "name": "Leigh View Medical Practice"}, {"key": "86", "latitude": 51.497535, "longitude": -2.582782, "name": "Monks Park Surgery"}, {"key": "87", "latitude": 52.613174, "longitude": -2.000799, "name": "Pinfold Health Centre"}, {"key": "88", "latitude": 53.807542, "longitude": -1.579756, "name": "Burley Park Medical Centre"}, {"key": "89", "latitude": 52.752393, "longitude": 0.943051, "name": "Elmham Surgery"}, {"key": "90", "latitude": 51.526916, "longitude": -0.064256, "name": "Bethnal Green Health Centre"}, {"key": "91", "latitude": 50.79536, "longitude": -1.096137, "name": "University Surgery"}, {"key": "94", "latitude": 51.570575, "longitude": -0.405028, "name": "The Cedars Medical Centre"}, {"key": "95", "latitude": 51.527915, "longitude": 0.026685, "name": "Essex Lodge"}, {"key": "98", "latitude": 53.707155, "longitude": -1.910416, "name": "Station Road Surgery"}, {"key": "99", "latitude": 53.082142, "longitude": -1.37217, "name": "Somercotes Medical Centre"}, {"key": "102", "latitude": 54.956479, "longitude": -1.604307, "name": "Central Gateshead Medical Group"}, {"key": "103", "latitude": 51.853858, "longitude": -2.518365, "name": "Drybrook Surgery"}, {"key": "104", "latitude": 53.564436, "longitude": -0.112579, "name": "Field House Medical Centre"}, {"key": "105", "latitude": 52.514861, "longitude": 1.020755, "name": "The Surgery"}, {"key": "109", "latitude": 54.983928, "longitude": -1.686387, "name": "Denton Turret Medical Centre"}, {"key": "110", "latitude": 51.326082, "longitude": -2.479869, "name": "St Mary`s Surgery"}, {"key": "111", "latitude": 51.95519, "longitude": 0.343457, "name": "Thaxted Surgery"}, {"key": "112", "latitude": 51.513595, "longitude": -0.050552, "name": "The Jubilee Street Practice"}, {"key": "114", "latitude": 53.211674, "longitude": -1.676377, "name": "The Medical Centre"}, {"key": "115", "latitude": 53.770893, "longitude": -0.381334, "name": "New Hall Surgery"}, {"key": "116", "latitude": 54.139046, "longitude": -1.524, "name": "North House Surgery"}, {"key": "120", "latitude": 51.577003, "longitude": -0.151724, "name": "Highgate Group Practice"}, {"key": "122", "latitude": 51.527847, "longitude": -0.027857, "name": "Harley Grove Medical Centre"}, {"key": "123", "latitude": 52.956339, "longitude": -1.167635, "name": "St Lukes Surgery"}, {"key": "124", "latitude": 53.818303, "longitude": -1.601582, "name": "Abbey Medical Centre"}, {"key": "125", "latitude": 51.541468, "longitude": -0.071483, "name": "Queensbridge Group Practice"}, {"key": "127", "latitude": 50.808243, "longitude": -1.15337, "name": "Brockhurst Medical Centre"}, {"key": "131", "latitude": 51.511253, "longitude": -0.028747, "name": "Gill Street Health Centre"}, {"key": "132", "latitude": 52.696505, "longitude": -1.837207, "name": "Langton Medical Practice"}, {"key": "134", "latitude": 50.841375, "longitude": -0.657769, "name": "The Croft Surgery"}, {"key": "137", "latitude": 52.730762, "longitude": 1.363255, "name": "Coltishall Medical Practice"}, {"key": "138", "latitude": 51.605078, "longitude": -0.275903, "name": "Bacon Lane Surgery"}, {"key": "142", "latitude": 52.345648, "longitude": -0.547783, "name": "The Cottons"}, {"key": "143", "latitude": 53.029901, "longitude": -1.207389, "name": "Torkard Hill Medical Centre"}, {"key": "145", "latitude": 51.558356, "longitude": -0.725805, "name": "Cookham Medical Centre"}, {"key": "146", "latitude": 52.619127, "longitude": 1.725527, "name": "Newtown Surgery"}, {"key": "148", "latitude": 51.300546, "longitude": -2.492756, "name": "Elm Hays Surgery"}, {"key": "149", "latitude": 51.748294, "longitude": -1.241281, "name": "St Clements Surgery"}, {"key": "150", "latitude": 53.526186, "longitude": -0.822225, "name": "South Axholme Practice"}, {"key": "152", "latitude": 51.446611, "longitude": -0.935701, "name": "Park Side Family Practice"}, {"key": "154", "latitude": 51.082557, "longitude": -4.060015, "name": "Boutport Medical Centre"}, {"key": "155", "latitude": 53.800664, "longitude": -2.231682, "name": "Thursby Surgery"}, {"key": "157", "latitude": 51.640789, "longitude": -0.994611, "name": "The Chiltern Surgery"}, {"key": "158", "latitude": 51.506369, "longitude": -0.592458, "name": "Herschel Medical Centre"}, {"key": "159", "latitude": 50.919425, "longitude": -2.686477, "name": "West Lake Surgery"}, {"key": "161", "latitude": 51.037993, "longitude": -2.827561, "name": "The Surgery"}, {"key": "162", "latitude": 51.554943, "longitude": -0.053257, "name": "Athena Medical Centre"}, {"key": "165", "latitude": 51.462707, "longitude": -2.603367, "name": "Western College"}, {"key": "166", "latitude": 51.601113, "longitude": -0.320613, "name": "Belmont Health Centre"}, {"key": "167", "latitude": 53.654307, "longitude": -1.817448, "name": "The Lindley Group Practice"}, {"key": "168", "latitude": 52.076465, "longitude": 0.720752, "name": "The Long Melford Practice"}, {"key": "169", "latitude": 51.437908, "longitude": -2.858551, "name": "Sunnyside Surgery"}, {"key": "170", "latitude": 50.925014, "longitude": -2.919801, "name": "Summervale Medical Centre"}, {"key": "171", "latitude": 50.784107, "longitude": -1.069415, "name": "The Surgery"}, {"key": "172", "latitude": 51.985282, "longitude": -0.183588, "name": "The Surgery"}, {"key": "173", "latitude": 51.761196, "longitude": -0.570653, "name": "The Surgery"}, {"key": "174", "latitude": 53.946484, "longitude": -1.075209, "name": "Wenlock Terrace Surgery"}, {"key": "177", "latitude": 52.778819, "longitude": 0.662036, "name": "Great Massingham  Surgery"}, {"key": "178", "latitude": 51.371749, "longitude": -0.171312, "name": "The Wrythe Green Surgery"}, {"key": "179", "latitude": 54.964142, "longitude": -1.712514, "name": "Chainbridge House"}, {"key": "180", "latitude": 51.53874, "longitude": -0.907912, "name": "Hart Surgery"}, {"key": "181", "latitude": 51.425877, "longitude": -1.17086, "name": "The Bucklebury Practice"}, {"key": "185", "latitude": 51.717529, "longitude": -1.197009, "name": "The Leys Health Centre"}, {"key": "186", "latitude": 51.76588, "longitude": -0.74378, "name": "Westongrove Partnership"}, {"key": "189", "latitude": 53.794992, "longitude": -2.24123, "name": "Parkside Surgery"}, {"key": "190", "latitude": 51.522433, "longitude": -1.133983, "name": "The Red Cross Road Surgery"}, {"key": "191", "latitude": 52.457187, "longitude": 1.705996, "name": "Rosedale Surgery"}, {"key": "193", "latitude": 51.185826, "longitude": 0.275507, "name": "Dunorlan Medical Group"}, {"key": "194", "latitude": 51.774383, "longitude": -1.26328, "name": "Summertown Health Centre"}, {"key": "195", "latitude": 51.514211, "longitude": -0.014336, "name": "Chrisp Street Health Centre"}, {"key": "196", "latitude": 51.620584, "longitude": -1.106159, "name": "Mill Stream Surgery"}, {"key": "199", "latitude": 51.437228, "longitude": -2.84572, "name": "Clevedon Medical Centre"}, {"key": "200", "latitude": 51.761474, "longitude": -1.215037, "name": "The Manor Surgery"}, {"key": "202", "latitude": 51.863259, "longitude": -1.597376, "name": "The Wychwood Surgery"}, {"key": "204", "latitude": 51.571444, "longitude": -0.125007, "name": "The Hornsey Rise Group Practice"}, {"key": "205", "latitude": 51.807721, "longitude": -1.638787, "name": "Burford Surgery"}, {"key": "206", "latitude": 51.121108, "longitude": -0.211874, "name": "Ifield Medical Practice"}, {"key": "210", "latitude": 51.550922, "longitude": -0.050991, "name": "Lower Clapton Group Practice"}, {"key": "211", "latitude": 53.795175, "longitude": -2.288626, "name": "The Health Centre"}, {"key": "212", "latitude": 51.439796, "longitude": -2.599857, "name": "Malago Surgery"}, {"key": "213", "latitude": 52.606218, "longitude": 1.729276, "name": "The Park Surgery"}, {"key": "215", "latitude": 54.119172, "longitude": -2.511134, "name": "Bentham Medical Practice"}, {"key": "216", "latitude": 52.578837, "longitude": -0.421712, "name": "Wansford Surgery"}, {"key": "217", "latitude": 51.549635, "longitude": -0.108033, "name": "Holloway Medical Clinic"}, {"key": "219", "latitude": 52.488404, "longitude": -1.954259, "name": "Cape Hill Medical Centre"}, {"key": "220", "latitude": 52.419642, "longitude": -1.775235, "name": "Grove Surgery"}, {"key": "221", "latitude": 51.38816, "longitude": -0.111166, "name": "North Croydon Medical Centre"}, {"key": "222", "latitude": 53.06655, "longitude": -2.453958, "name": "Brooklands House"}, {"key": "223", "latitude": 51.648828, "longitude": -0.194727, "name": "East Barnet Health Centre"}, {"key": "225", "latitude": 51.733852, "longitude": -0.355421, "name": "Midway Surgery"}, {"key": "227", "latitude": 51.759768, "longitude": -0.558947, "name": "The Manor Street Surgery"}, {"key": "229", "latitude": 53.789073, "longitude": -2.234487, "name": "Yorkshire Street Medical Centre"}, {"key": "230", "latitude": 52.400913, "longitude": -0.08438, "name": "The Moat House Surgery"}, {"key": "232", "latitude": 52.655188, "longitude": -2.433777, "name": "Stirchley Medical Practice"}, {"key": "234", "latitude": 51.055732, "longitude": -2.730939, "name": "The Somerton Surgery"}, {"key": "235", "latitude": 51.484091, "longitude": -2.191875, "name": "Jubilee Field Surgery"}, {"key": "236", "latitude": 53.551684, "longitude": -0.495121, "name": "The Bridge Street Surgery"}, {"key": "237", "latitude": 53.865295, "longitude": -1.684131, "name": "Yeadon Health Centre"}, {"key": "238", "latitude": 51.150216, "longitude": -2.87579, "name": "The Surgery"}, {"key": "239", "latitude": 51.402049, "longitude": -1.325182, "name": "Northcroft Surgery"}, {"key": "240", "latitude": 53.754275, "longitude": -3.029645, "name": "Park Road Medical Practice"}, {"key": "242", "latitude": 51.530813, "longitude": -0.737415, "name": "Linden Medical Centre"}, {"key": "243", "latitude": 53.459623, "longitude": -1.344029, "name": "The Surgery"}, {"key": "245", "latitude": 51.729032, "longitude": -1.55034, "name": "Bampton Surgery"}, {"key": "247", "latitude": 51.077578, "longitude": -4.056239, "name": "Brannam Medical Centre"}, {"key": "250", "latitude": 52.946139, "longitude": -1.03822, "name": "The Health Centre"}, {"key": "251", "latitude": 50.82118, "longitude": -0.132888, "name": "Ardingly Court Surgery"}, {"key": "252", "latitude": 51.560457, "longitude": -0.083924, "name": "Barton House Health Centre"}, {"key": "253", "latitude": 51.512635, "longitude": 0.025229, "name": "Custom House Surgery"}, {"key": "257", "latitude": 53.464941, "longitude": -2.672123, "name": "Haydock Medical Centre"}, {"key": "258", "latitude": 55.309097, "longitude": -1.911673, "name": "The Rothbury Practice"}, {"key": "259", "latitude": 50.857944, "longitude": 0.578137, "name": "Wellington Square Medical Centre"}, {"key": "260", "latitude": 53.339284, "longitude": -1.270122, "name": "Kiveton Park Medical Practice"}, {"key": "261", "latitude": 50.921365, "longitude": -1.455974, "name": "Dr Kelpie & Partners"}, {"key": "263", "latitude": 51.331436, "longitude": -1.066893, "name": "Clift Surgery"}, {"key": "264", "latitude": 51.489093, "longitude": -2.67671, "name": "Shirehampton Group Practice"}, {"key": "266", "latitude": 51.709803, "longitude": -1.976955, "name": "Phoenix Surgery"}, {"key": "270", "latitude": 52.768626, "longitude": -0.380913, "name": "Hereward Medical Centre"}, {"key": "271", "latitude": 51.149764, "longitude": -3.064649, "name": "Cannington Health Centre"}, {"key": "273", "latitude": 50.472848, "longitude": -4.72264, "name": "Carnewater Practice"}, {"key": "274", "latitude": 53.257964, "longitude": -2.12262, "name": "Waters Green Medical Centre"}, {"key": "276", "latitude": 53.840868, "longitude": -0.435177, "name": "The Old Fire Station"}, {"key": "277", "latitude": 52.454599, "longitude": -1.874858, "name": "Ann Jones Family Health Centre"}, {"key": "279", "latitude": 51.368145, "longitude": -0.795244, "name": "Heath Hill Surgery"}, {"key": "280", "latitude": 52.371699, "longitude": -0.256797, "name": "Alconbury Surgery"}, {"key": "281", "latitude": 52.79343, "longitude": -2.993042, "name": "Knockin Medical Centre"}, {"key": "283", "latitude": 52.337823, "longitude": -1.728375, "name": "Lapworth Surgery"}, {"key": "284", "latitude": 51.855104, "longitude": 1.063783, "name": "The Hollies"}, {"key": "285", "latitude": 52.587156, "longitude": -1.977891, "name": "The Surgery"}, {"key": "286", "latitude": 52.943872, "longitude": 0.719751, "name": "The Burnham`s Surgery"}, {"key": "287", "latitude": 51.397642, "longitude": -0.233672, "name": "The Surgery"}, {"key": "288", "latitude": 51.430508, "longitude": -0.063327, "name": "Wells Park Practice"}, {"key": "289", "latitude": 51.754816, "longitude": -1.261454, "name": "The Surgery"}, {"key": "292", "latitude": 50.819088, "longitude": -2.272561, "name": "The Milton Abbas Surgery"}, {"key": "293", "latitude": 54.611726, "longitude": -1.292215, "name": "The Surgery"}, {"key": "295", "latitude": 51.532216, "longitude": -0.030885, "name": "St Stephens Health Centre"}, {"key": "296", "latitude": 53.254018, "longitude": -1.918018, "name": "The Stewart Medical Centre"}, {"key": "297", "latitude": 52.580655, "longitude": -1.974677, "name": "Dr Manocha & Partners"}, {"key": "300", "latitude": 52.574984, "longitude": -1.979284, "name": "Little London Surgery"}, {"key": "301", "latitude": 52.626307, "longitude": -1.932532, "name": "St Johns Medical Centre"}, {"key": "302", "latitude": 51.844235, "longitude": -0.917729, "name": "Waddesdon Surgery"}, {"key": "304", "latitude": 52.587684, "longitude": -1.979464, "name": "Saddlers Health Centre"}, {"key": "307", "latitude": 51.462959, "longitude": -2.500132, "name": "Kingswood Health Centre"}, {"key": "308", "latitude": 53.258203, "longitude": -2.512184, "name": "Danebridge Medical Centre"}, {"key": "309", "latitude": 53.445476, "longitude": -2.160577, "name": "Park View Group Practice"}, {"key": "314", "latitude": 54.595305, "longitude": -3.541351, "name": "The Surgery"}, {"key": "315", "latitude": 51.606556, "longitude": -0.126493, "name": "Bounds Green Group Practice"}, {"key": "317", "latitude": 53.396596, "longitude": -2.571248, "name": "The Surgery"}, {"key": "319", "latitude": 51.485171, "longitude": -2.497322, "name": "The Willow Surgery"}, {"key": "320", "latitude": 51.357264, "longitude": -0.150861, "name": "Shotfield Health Centre"}, {"key": "321", "latitude": 51.539773, "longitude": -0.188014, "name": "Belsize Priory Medical Practice"}, {"key": "322", "latitude": 53.013187, "longitude": -1.349087, "name": "The Kelvingrove Medical Centre"}, {"key": "323", "latitude": 51.594426, "longitude": -0.233253, "name": "Watford Way Medical Centre"}, {"key": "327", "latitude": 51.96536, "longitude": 1.327039, "name": "Haven Health"}, {"key": "332", "latitude": 52.787253, "longitude": -0.145012, "name": "Church Street Surgery"}, {"key": "333", "latitude": 54.94538, "longitude": -1.677226, "name": "Whickham Health Centre"}, {"key": "335", "latitude": 54.699817, "longitude": -1.599142, "name": "Spennymoor Health Centre"}, {"key": "336", "latitude": 51.759806, "longitude": -0.341568, "name": "The Lodge And Highfield Surgeries"}, {"key": "337", "latitude": 50.738795, "longitude": -3.997593, "name": "The Medical Centre"}, {"key": "338", "latitude": 54.485919, "longitude": -0.62317, "name": "Whitby Group Practice"}, {"key": "339", "latitude": 51.531373, "longitude": -0.056483, "name": "The Mission Practice"}, {"key": "341", "latitude": 51.754639, "longitude": -0.471833, "name": "Fernville Surgery"}, {"key": "342", "latitude": 51.774771, "longitude": -1.263535, "name": "Banbury Road Medical Centre"}, {"key": "344", "latitude": 51.866761, "longitude": 0.161005, "name": "South Street Surgery"}, {"key": "348", "latitude": 54.975577, "longitude": -1.438064, "name": "Farnham Medical Centre"}, {"key": "349", "latitude": 52.707667, "longitude": -2.797762, "name": "Mytton Oak Surgery"}, {"key": "350", "latitude": 51.506983, "longitude": -0.068285, "name": "St Catherines Docks Practice"}, {"key": "351", "latitude": 51.468632, "longitude": -0.976191, "name": "Priory Avenue Surgery"}, {"key": "352", "latitude": 54.987693, "longitude": -1.436785, "name": "St George Medical Centre"}, {"key": "353", "latitude": 51.237261, "longitude": -0.557983, "name": "Austen Road Surgery"}, {"key": "354", "latitude": 53.458715, "longitude": -3.002523, "name": "Moore Street Medical Centre"}, {"key": "355", "latitude": 53.742949, "longitude": -1.604902, "name": "Fountain Medical Centre"}, {"key": "356", "latitude": 52.708996, "longitude": 1.534391, "name": "The Surgery"}, {"key": "358", "latitude": 54.952795, "longitude": -1.364667, "name": "Whitburn Surgery"}, {"key": "359", "latitude": 51.42959, "longitude": -0.573529, "name": "Runnymede Medical Practice"}, {"key": "360", "latitude": 51.540211, "longitude": -2.560645, "name": "Bradley Stoke Surgery"}, {"key": "361", "latitude": 51.754148, "longitude": -0.340152, "name": "Harvey Group Practice"}, {"key": "362", "latitude": 51.787511, "longitude": -1.488985, "name": "The Windrush Health Centre"}, {"key": "363", "latitude": 52.190536, "longitude": -1.709788, "name": "Bridge House Medical Centre"}, {"key": "365", "latitude": 51.452314, "longitude": -2.422346, "name": "Three Shires Medical Practice"}, {"key": "366", "latitude": 51.616197, "longitude": -0.443981, "name": "Northwood Health Centre"}, {"key": "368", "latitude": 51.53387, "longitude": -0.234316, "name": "Law Medical Group Practice"}, {"key": "369", "latitude": 52.956339, "longitude": -1.167635, "name": "Radford Medical Practice"}, {"key": "371", "latitude": 51.534784, "longitude": 0.005881, "name": "Abbey Road Medical Practice"}, {"key": "373", "latitude": 51.588124, "longitude": -0.162853, "name": "East Finchley Medical Centre"}, {"key": "374", "latitude": 54.071093, "longitude": -1.214509, "name": "The Surgery"}, {"key": "376", "latitude": 53.26751, "longitude": -2.910629, "name": "Whitby Group Practice"}, {"key": "377", "latitude": 51.579178, "longitude": -0.127301, "name": "The Crouch Hall Road Surgery"}, {"key": "378", "latitude": 53.557711, "longitude": -1.438538, "name": "Lundwood Medical Centre"}, {"key": "379", "latitude": 51.220178, "longitude": -0.460112, "name": "Shere Surgery & Dispensary"}, {"key": "380", "latitude": 55.008904, "longitude": -1.577226, "name": "Lane End Surgery"}, {"key": "381", "latitude": 51.530994, "longitude": 0.057489, "name": "Dr Meadows & Partners"}, {"key": "383", "latitude": 51.853393, "longitude": -2.24259, "name": "Pavilion Family Doctors"}, {"key": "384", "latitude": 51.892339, "longitude": -0.36944, "name": "Churchfield Medical Centre"}, {"key": "385", "latitude": 52.655081, "longitude": 0.686794, "name": "Plowright Medical Centre"}, {"key": "389", "latitude": 52.722306, "longitude": 0.790119, "name": "Litcham Health Centre"}, {"key": "390", "latitude": 55.051876, "longitude": -1.749656, "name": "White Medical Group"}, {"key": "395", "latitude": 51.581101, "longitude": -0.197845, "name": "Temple Fortune Health Centre"}, {"key": "396", "latitude": 51.457798, "longitude": -0.011071, "name": "The Triangle Group Practice"}, {"key": "397", "latitude": 51.419851, "longitude": -0.209171, "name": "Francis Grove Surgery"}, {"key": "399", "latitude": 52.899943, "longitude": -2.143758, "name": "Mansion House Surgery"}, {"key": "401", "latitude": 52.693241, "longitude": -2.030614, "name": "Red Lion House"}, {"key": "402", "latitude": 52.675986, "longitude": -2.171845, "name": "The Surgery"}, {"key": "403", "latitude": 53.293052, "longitude": -2.726821, "name": "The Rock Surgery"}, {"key": "405", "latitude": 51.345788, "longitude": -2.958068, "name": "The Surgery"}, {"key": "406", "latitude": 51.527214, "longitude": -0.017533, "name": "Stroudley Walk Health Centre"}, {"key": "409", "latitude": 51.102742, "longitude": 1.000715, "name": "Sellindge Surgery"}, {"key": "410", "latitude": 53.399166, "longitude": -2.876606, "name": "Valley Medical Centre"}, {"key": "411", "latitude": 50.988786, "longitude": -3.487263, "name": "The Surgery"}, {"key": "412", "latitude": 51.952661, "longitude": -2.891851, "name": "The Surgery"}, {"key": "414", "latitude": 51.480622, "longitude": -2.689141, "name": "Heywood Surgery"}, {"key": "416", "latitude": 51.549748, "longitude": -0.58512, "name": "Threeways"}, {"key": "417", "latitude": 50.148927, "longitude": -5.07501, "name": "Westover Surgery"}, {"key": "419", "latitude": 52.585445, "longitude": -2.057135, "name": "Willenhall Medical Centre"}, {"key": "421", "latitude": 51.412886, "longitude": -0.20418, "name": "The Church Lane Practice"}, {"key": "424", "latitude": 51.608476, "longitude": -0.362526, "name": "Elliott Hall Medical Centre"}, {"key": "426", "latitude": 51.575314, "longitude": -0.202793, "name": "Ravenscroft Medical Centre"}, {"key": "427", "latitude": 51.525616, "longitude": -0.72003, "name": "The Cedars Surgery"}, {"key": "429", "latitude": 51.821558, "longitude": -1.289236, "name": "Exeter Surgery"}, {"key": "430", "latitude": 52.420772, "longitude": 1.717841, "name": "Field Lane Surgery"}, {"key": "431", "latitude": 53.449573, "longitude": -2.989674, "name": "Dr Newman & Partners"}, {"key": "432", "latitude": 50.482262, "longitude": -3.520452, "name": "The Dewerstone Surgery"}, {"key": "433", "latitude": 51.576497, "longitude": -0.350702, "name": "St Peters Medical Centre"}, {"key": "434", "latitude": 51.577958, "longitude": -0.005771, "name": "Leyton Green Neighbourhood Health Serv"}, {"key": "435", "latitude": 54.943757, "longitude": -1.545877, "name": "Longrigg Medical Centre"}, {"key": "437", "latitude": 51.38937, "longitude": -2.366925, "name": "St. James Surgery"}, {"key": "440", "latitude": 51.723259, "longitude": -0.030325, "name": "The Maples"}, {"key": "441", "latitude": 53.45981, "longitude": -2.1814, "name": "Mount Road Surgery"}, {"key": "443", "latitude": 51.425872, "longitude": -2.613094, "name": "Lennards Surgery"}, {"key": "444", "latitude": 51.623071, "longitude": -0.014614, "name": "Old Church Surgery"}, {"key": "446", "latitude": 52.924816, "longitude": -1.485624, "name": "Friar Gate Surgery"}, {"key": "447", "latitude": 53.798592, "longitude": -2.23873, "name": "Colne Road Surgery"}, {"key": "448", "latitude": 53.427071, "longitude": -2.177407, "name": "Eastholme Surgery"}, {"key": "451", "latitude": 51.33873, "longitude": 1.427223, "name": "The Grange Medical Centre"}, {"key": "452", "latitude": 54.816997, "longitude": -1.383326, "name": "Murton Medical Group"}, {"key": "454", "latitude": 54.227651, "longitude": -2.771171, "name": "Park View Surgery"}, {"key": "456", "latitude": 52.960219, "longitude": -1.104957, "name": "Bakersfield Medical Centre"}, {"key": "458", "latitude": 51.614985, "longitude": -0.243591, "name": "Millway Medical Practice"}, {"key": "462", "latitude": 52.058899, "longitude": -1.343294, "name": "Windrush Surgery"}, {"key": "464", "latitude": 51.172873, "longitude": -0.166112, "name": "Birchwood Medical Centre"}, {"key": "465", "latitude": 51.371253, "longitude": -0.095037, "name": "Friends Road Medical Practice"}, {"key": "466", "latitude": 53.330556, "longitude": -1.983038, "name": "Goyt Valley Medical Practice"}, {"key": "467", "latitude": 51.76504, "longitude": -1.586716, "name": "The Broadshires Health Centre"}, {"key": "471", "latitude": 52.537286, "longitude": -2.806169, "name": "The Medical Centre"}, {"key": "472", "latitude": 51.386627, "longitude": -0.209994, "name": "Stonecot Surgery"}, {"key": "474", "latitude": 53.450648, "longitude": -2.985708, "name": "Park Street Surgery"}, {"key": "477", "latitude": 51.482057, "longitude": -0.576314, "name": "Datchet Health Centre"}, {"key": "480", "latitude": 51.460152, "longitude": -0.301393, "name": "The Paradise Road Practice"}, {"key": "481", "latitude": 51.57527, "longitude": -0.358784, "name": "The Surgery"}, {"key": "482", "latitude": 54.24494, "longitude": -0.781434, "name": "Pickering Medical Practice"}, {"key": "483", "latitude": 51.444456, "longitude": -0.964156, "name": "Whitley Villa Surgery"}, {"key": "485", "latitude": 50.407375, "longitude": -4.214687, "name": "Port View Surgery"}, {"key": "487", "latitude": 52.699878, "longitude": -2.514204, "name": "The Health Centre"}, {"key": "488", "latitude": 50.951505, "longitude": -2.752963, "name": "Hamdon Medical Centre"}, {"key": "489", "latitude": 50.954243, "longitude": -2.617414, "name": "Oaklands Surgery"}, {"key": "490", "latitude": 50.967502, "longitude": -2.471962, "name": "The Surgery"}, {"key": "491", "latitude": 51.001578, "longitude": -2.682131, "name": "The Ilchester Surgery"}, {"key": "493", "latitude": 51.241343, "longitude": -2.450479, "name": "Mendip Country Practice"}, {"key": "494", "latitude": 51.091399, "longitude": -3.013951, "name": "The Surgery"}, {"key": "496", "latitude": 51.13059, "longitude": -3.012201, "name": "Church Street Surgery"}, {"key": "497", "latitude": 51.22734, "longitude": -2.979221, "name": "Highbridge Medical Centre"}, {"key": "499", "latitude": 51.019734, "longitude": -2.972858, "name": "The Health Centre"}, {"key": "500", "latitude": 51.028538, "longitude": -3.045597, "name": "Creech Medical Centre"}, {"key": "502", "latitude": 52.388951, "longitude": 0.124169, "name": "Priors Field Surgery"}, {"key": "505", "latitude": 51.466044, "longitude": -0.15683, "name": "Lavendar Hill Group Practice"}, {"key": "506", "latitude": 51.585483, "longitude": -1.878078, "name": "Purton Surgery"}, {"key": "509", "latitude": 52.739345, "longitude": -0.684769, "name": "The Surgery"}, {"key": "510", "latitude": 50.805279, "longitude": -1.989191, "name": "Walford Mill Medical Centre"}, {"key": "511", "latitude": 52.187931, "longitude": -2.507177, "name": "Nunwell Surgery"}, {"key": "512", "latitude": 55.010941, "longitude": -1.450673, "name": "c/o North Tyneside PCT"}, {"key": "513", "latitude": 53.270467, "longitude": -2.770522, "name": "The Helsby & Elton Practice"}, {"key": "514", "latitude": 51.445038, "longitude": -0.361551, "name": "The Surgery"}, {"key": "515", "latitude": 51.791434, "longitude": 1.151229, "name": "East Lynne Medical Centre"}, {"key": "516", "latitude": 54.795754, "longitude": -1.587136, "name": "Chastleton Medical Group"}, {"key": "519", "latitude": 53.481078, "longitude": -3.023693, "name": "Eastview Surgery"}, {"key": "520", "latitude": 50.94185, "longitude": -2.644279, "name": "Preston Grove Medical Centre"}, {"key": "521", "latitude": 51.491152, "longitude": -0.021143, "name": "Docklands Medical Centre"}, {"key": "522", "latitude": 51.188288, "longitude": -0.809929, "name": "Holly Tree Surgery"}, {"key": "524", "latitude": 51.551621, "longitude": -0.448053, "name": "4 Freezeland Way"}, {"key": "526", "latitude": 51.200736, "longitude": -0.776974, "name": "The Bourne Medical Practice"}, {"key": "528", "latitude": 52.540709, "longitude": -1.799904, "name": "Ashfield Surgery"}, {"key": "529", "latitude": 51.519331, "longitude": -0.148092, "name": "Cavendish Health Centre"}, {"key": "532", "latitude": 53.34926, "longitude": -2.125559, "name": "Mcilvride Medical Practice"}, {"key": "533", "latitude": 50.951832, "longitude": -2.640872, "name": "Ryalls Park Medical Centre"}, {"key": "534", "latitude": 53.481011, "longitude": -3.020167, "name": "Kingsway Surgery"}, {"key": "536", "latitude": 53.142488, "longitude": -1.810816, "name": "The Surgery"}, {"key": "537", "latitude": 53.255143, "longitude": -1.920834, "name": "Elmwood Medical Centre"}, {"key": "538", "latitude": 53.398109, "longitude": -2.606896, "name": "The Medical Centre"}, {"key": "539", "latitude": 52.931099, "longitude": -1.273642, "name": "Stapleford Care Centre"}, {"key": "540", "latitude": 51.73536, "longitude": -1.232273, "name": "Donnington Health Centre"}, {"key": "541", "latitude": 51.761302, "longitude": -0.22721, "name": "Burville House Surgery"}, {"key": "542", "latitude": 51.087618, "longitude": -2.51716, "name": "The New Surgery"}, {"key": "543", "latitude": 51.137424, "longitude": 0.264349, "name": "Grosvenor Medical Centre"}, {"key": "544", "latitude": 52.342097, "longitude": -1.844748, "name": "Tanworth-in-Arden Medical Practice"}, {"key": "545", "latitude": 51.451154, "longitude": -0.242431, "name": "The Roehampton Surgery"}, {"key": "546", "latitude": 54.956398, "longitude": -1.601653, "name": "The Surgery"}, {"key": "547", "latitude": 51.915799, "longitude": 0.228402, "name": "Elsenham Surgery"}, {"key": "563", "latitude": 53.195539, "longitude": -2.504342, "name": "Willow Wood Surgery"}, {"key": "564", "latitude": 54.553165, "longitude": -0.794113, "name": "Staithes Surgery"}, {"key": "566", "latitude": 52.114043, "longitude": -2.077775, "name": "The Health Centre"}, {"key": "567", "latitude": 55.240248, "longitude": -1.62051, "name": "Widdrington Medical Practitioners"}, {"key": "568", "latitude": 51.203334, "longitude": -3.477373, "name": "Irnham Lodge Surgery"}, {"key": "570", "latitude": 51.50946, "longitude": 0.062932, "name": "Royal Docks Medical Practice"}, {"key": "571", "latitude": 51.898041, "longitude": -0.71666, "name": "The Surgery"}, {"key": "572", "latitude": 55.140811, "longitude": -1.564429, "name": "The Gables Health Centre"}, {"key": "573", "latitude": 53.106725, "longitude": -2.019587, "name": "Moorland Medical Centre"}, {"key": "574", "latitude": 51.357024, "longitude": -1.145535, "name": "Holmwood Health Centre"}, {"key": "579", "latitude": 52.504436, "longitude": -2.058252, "name": "Oakham Surgery"}, {"key": "580", "latitude": 51.149211, "longitude": -3.154208, "name": "Quantock Medical Centre"}, {"key": "581", "latitude": 51.595001, "longitude": -0.19422, "name": "The Mountfield Surgery"}, {"key": "583", "latitude": 51.767777, "longitude": -1.231347, "name": "Marston Medical Centre"}, {"key": "587", "latitude": 54.710276, "longitude": -1.694336, "name": "The Surgery"}, {"key": "588", "latitude": 54.845023, "longitude": -1.478747, "name": "Kepier Medical Practice"}, {"key": "589", "latitude": 52.764241, "longitude": -2.3789, "name": "Wellington Road Surgery"}, {"key": "590", "latitude": 50.977398, "longitude": -3.229566, "name": "Luson Surgery"}, {"key": "592", "latitude": 51.468737, "longitude": -0.040618, "name": "The Surgery"}, {"key": "595", "latitude": 52.942177, "longitude": -1.195942, "name": "Nottingham University H/s"}, {"key": "596", "latitude": 53.456686, "longitude": -2.74261, "name": "Dr Marriott & Partners"}, {"key": "598", "latitude": 51.60368, "longitude": -0.270699, "name": "Oak Lodge Medical Centre"}, {"key": "599", "latitude": 53.553584, "longitude": -0.491823, "name": "Riverside Surgery"}, {"key": "600", "latitude": 51.51159, "longitude": -0.762012, "name": "Redwood House"}, {"key": "602", "latitude": 52.604024, "longitude": -1.614159, "name": "The Surgery"}, {"key": "603", "latitude": 52.194889, "longitude": -2.202942, "name": "Haresfield Surgery"}, {"key": "605", "latitude": 51.403169, "longitude": -0.080772, "name": "South Norwood Hill Medical Centre"}, {"key": "606", "latitude": 54.955173, "longitude": -1.723602, "name": "Holyhurst Surgery"}, {"key": "607", "latitude": 52.897102, "longitude": -1.863512, "name": "Balance Street Surgery"}, {"key": "608", "latitude": 53.107255, "longitude": -2.020513, "name": "The John Kelso Group Practice"}, {"key": "611", "latitude": 52.409967, "longitude": -1.935566, "name": "Wychall Lane Surgery"}, {"key": "612", "latitude": 52.695922, "longitude": -2.450324, "name": "Oakengates Medical Practice"}, {"key": "613", "latitude": 51.417222, "longitude": -0.752897, "name": "Skimped Hill Health Centre"}, {"key": "615", "latitude": 51.33873, "longitude": 1.427223, "name": "Mildmay Court Surgery"}, {"key": "618", "latitude": 52.575209, "longitude": -1.322934, "name": "Heath Lane Surgery"}, {"key": "619", "latitude": 51.982906, "longitude": -1.322171, "name": "Deddington Health Centre"}, {"key": "621", "latitude": 53.383291, "longitude": -2.8632, "name": "The Surgery"}, {"key": "622", "latitude": 51.599017, "longitude": -0.356773, "name": "Dr Ravikumar"}, {"key": "624", "latitude": 52.189811, "longitude": 0.018614, "name": "The Surgery"}, {"key": "625", "latitude": 51.861207, "longitude": -2.237564, "name": "Barton Gate Surgery"}, {"key": "626", "latitude": 54.952781, "longitude": -1.617038, "name": "Bensham Family Practice"}, {"key": "627", "latitude": 51.604471, "longitude": -0.343002, "name": "Aspri Medical Centre"}, {"key": "628", "latitude": 51.587155, "longitude": -0.337497, "name": "Civic Medical Centre"}, {"key": "629", "latitude": 52.650925, "longitude": -0.477465, "name": "St Mary`s Medical Centre"}, {"key": "632", "latitude": 50.356823, "longitude": -4.085983, "name": "Church View Surgery"}, {"key": "633", "latitude": 54.891881, "longitude": -1.576441, "name": "Birtley Medical Centre"}, {"key": "635", "latitude": 53.163762, "longitude": -2.216792, "name": "Readesmoor Medical Group Practice"}, {"key": "637", "latitude": 54.953229, "longitude": -1.640096, "name": "Glenpark Medical Centre"}, {"key": "639", "latitude": 52.437994, "longitude": -1.531085, "name": "Park Leys Medical Practice"}, {"key": "643", "latitude": 53.448629, "longitude": -2.902288, "name": "Jubilee Medical Centre"}, {"key": "644", "latitude": 53.443979, "longitude": -1.945127, "name": "Manor House Doctors Surgery"}, {"key": "646", "latitude": 52.58705, "longitude": -1.106121, "name": "Wigston Central Surgery"}, {"key": "650", "latitude": 52.583369, "longitude": -1.111591, "name": "The Surgery"}, {"key": "651", "latitude": 51.018121, "longitude": -3.101806, "name": "St James Medical Centre"}, {"key": "653", "latitude": 51.400008, "longitude": -0.634123, "name": "Magnolia House"}, {"key": "657", "latitude": 51.535807, "longitude": -0.630088, "name": "The Avenue Medical Centre"}, {"key": "658", "latitude": 50.873033, "longitude": -2.9615, "name": "Essex House Medical Centre"}, {"key": "661", "latitude": 52.218243, "longitude": 1.491892, "name": "Saxmundham Health Group"}, {"key": "663", "latitude": 51.54757, "longitude": -0.253241, "name": "Church End Medical Centre"}, {"key": "665", "latitude": 51.601113, "longitude": -0.320613, "name": "The Circle Practice"}, {"key": "666", "latitude": 53.349555, "longitude": -2.118109, "name": "Priorslegh Medical Centre"}, {"key": "667", "latitude": 51.552538, "longitude": -0.616953, "name": "Southmead Surgery"}, {"key": "668", "latitude": 51.656689, "longitude": -0.401058, "name": "Dr Ratnavel & Partners"}, {"key": "670", "latitude": 51.589819, "longitude": -0.21286, "name": "The Surgery"}, {"key": "672", "latitude": 53.394852, "longitude": -2.064638, "name": "Marple Medical Practice"}, {"key": "674", "latitude": 51.047121, "longitude": 0.510726, "name": "North Ridge Medical Practice"}, {"key": "675", "latitude": 51.491795, "longitude": -0.140022, "name": "Westminster Health Centre"}, {"key": "676", "latitude": 51.599604, "longitude": -0.19329, "name": "Durden NP-The Surgery"}, {"key": "677", "latitude": 53.364978, "longitude": -2.075293, "name": "Mathewson Brothers"}, {"key": "679", "latitude": 53.435857, "longitude": -2.866944, "name": "Stockbridge Health Centre"}, {"key": "680", "latitude": 52.981614, "longitude": -1.107646, "name": "The Surgery"}, {"key": "681", "latitude": 51.488828, "longitude": -0.195408, "name": "The Surgery"}, {"key": "684", "latitude": 51.601578, "longitude": -0.24421, "name": "The Everglade Medical Practice"}, {"key": "685", "latitude": 51.616129, "longitude": -0.272812, "name": "The Surgery"}, {"key": "687", "latitude": 53.787357, "longitude": -2.744857, "name": "Ingol Health Centre"}, {"key": "688", "latitude": 53.816942, "longitude": -1.587333, "name": "Laurel Bank Surgery"}, {"key": "690", "latitude": 51.443567, "longitude": -2.51205, "name": "Hanham Surgery"}, {"key": "691", "latitude": 52.606079, "longitude": -1.176416, "name": "Kingsway Surgery"}, {"key": "693", "latitude": 51.551186, "longitude": -0.319827, "name": "Dr Goraya & Partners"}, {"key": "694", "latitude": 51.588135, "longitude": -0.15976, "name": "Cherry Tree Surgery"}, {"key": "697", "latitude": 51.544251, "longitude": -0.296619, "name": "The Stanley Medical Centre"}, {"key": "698", "latitude": 53.031015, "longitude": -1.455285, "name": "Green Lane Surgery"}, {"key": "700", "latitude": 51.607728, "longitude": -0.187967, "name": "Wentworth Medical Practice"}, {"key": "702", "latitude": 51.648828, "longitude": -0.194727, "name": "Bicknoller"}, {"key": "703", "latitude": 53.585727, "longitude": -1.7122, "name": "Shepley Health Centre"}, {"key": "704", "latitude": 51.600731, "longitude": -0.147555, "name": "The Surgery"}, {"key": "705", "latitude": 51.582963, "longitude": -0.280565, "name": "The Fryent Way Surgery"}, {"key": "706", "latitude": 51.606973, "longitude": -0.257476, "name": "Park View Surgery"}, {"key": "710", "latitude": 51.483584, "longitude": -0.972861, "name": "Emmer Green Surgery"}, {"key": "712", "latitude": 53.323079, "longitude": -2.235223, "name": "Kenmore Medical Centre"}, {"key": "714", "latitude": 51.569038, "longitude": -0.199318, "name": "The Surgery"}, {"key": "715", "latitude": 51.068039, "longitude": 0.690221, "name": "Ivy Court Surgery"}, {"key": "717", "latitude": 51.113244, "longitude": -1.490082, "name": "Stockbridge Surgery"}, {"key": "718", "latitude": 52.485583, "longitude": -0.472297, "name": "The Surgery"}, {"key": "719", "latitude": 53.873954, "longitude": -2.3932, "name": "Pendleside Medical Practice"}, {"key": "723", "latitude": 51.534004, "longitude": 0.088164, "name": "The Surgery"}, {"key": "724", "latitude": 51.488788, "longitude": -0.610399, "name": "South Meadow Surgery"}, {"key": "725", "latitude": 51.596896, "longitude": -0.184153, "name": "Rosemary Surgery"}, {"key": "726", "latitude": 51.593812, "longitude": -0.30812, "name": "The Surgery"}, {"key": "730", "latitude": 51.599135, "longitude": -1.654, "name": "Elm Tree Surgery"}, {"key": "732", "latitude": 52.764828, "longitude": -1.22952, "name": "University Medical Centre"}, {"key": "733", "latitude": 53.703064, "longitude": -1.782549, "name": "Rydings Hall Surgery"}, {"key": "734", "latitude": 50.792731, "longitude": -1.136098, "name": "Stoke Road Medical Centre"}, {"key": "737", "latitude": 52.607612, "longitude": -1.960529, "name": "Rushall Medical Centre"}, {"key": "738", "latitude": 51.632299, "longitude": -0.749217, "name": "Carrington House Surgery"}, {"key": "748", "latitude": 51.489057, "longitude": -0.097247, "name": "Walworth Road Surgery"}, {"key": "751", "latitude": 51.555924, "longitude": -0.215603, "name": "Dr Shah & Partner"}, {"key": "752", "latitude": 51.430269, "longitude": -0.013043, "name": "South Lewisham Group Practice"}, {"key": "753", "latitude": 51.519291, "longitude": -0.509515, "name": "Iver Health Centre"}, {"key": "754", "latitude": 51.558214, "longitude": -0.316409, "name": "The Surgery"}, {"key": "755", "latitude": 52.215308, "longitude": -1.979596, "name": "The Hawthorns"}, {"key": "758", "latitude": 50.746236, "longitude": -2.341943, "name": "The Surgery"}, {"key": "759", "latitude": 50.411271, "longitude": -4.0952, "name": "Estover Health Centre"}, {"key": "760", "latitude": 51.564634, "longitude": -0.241002, "name": "Crest Medical Centre"}, {"key": "761", "latitude": 51.599453, "longitude": -0.195386, "name": "Ground Floor Supreme House"}, {"key": "762", "latitude": 51.527591, "longitude": -0.416838, "name": "Dr Quadri & Partners"}, {"key": "763", "latitude": 51.56442, "longitude": -0.065145, "name": "Elm Practice"}, {"key": "765", "latitude": 51.944864, "longitude": -0.883005, "name": "Norden House Surgery"}, {"key": "770", "latitude": 51.479685, "longitude": -2.526566, "name": "Fishponds Primary Care Centre"}, {"key": "772", "latitude": 51.576439, "longitude": 0.051069, "name": "The Surgery"}, {"key": "773", "latitude": 51.535314, "longitude": -0.22036, "name": "Chamberlayne Road Surgery"}, {"key": "774", "latitude": 51.497325, "longitude": -0.208787, "name": "Kensington Park Medical Centre"}, {"key": "775", "latitude": 51.620685, "longitude": -0.112028, "name": "Grovelands Medical Centre"}, {"key": "776", "latitude": 51.470383, "longitude": -2.560163, "name": "Eastville Health Centre"}, {"key": "777", "latitude": 50.989406, "longitude": 0.132095, "name": "April Cottage"}, {"key": "779", "latitude": 52.967633, "longitude": -2.678496, "name": "Drumcarrig"}, {"key": "780", "latitude": 50.960357, "longitude": -2.376903, "name": "Stalbridge Surgery"}, {"key": "781", "latitude": 51.52236, "longitude": -0.139929, "name": "Fitzrovia Medical Centre"}, {"key": "784", "latitude": 51.270972, "longitude": 0.191368, "name": "Town Medical Centre"}, {"key": "785", "latitude": 53.38731, "longitude": -3.029698, "name": "Whetstone Medical Centre"}, {"key": "789", "latitude": 51.632475, "longitude": -0.054245, "name": "Forest Primary Care Centre"}, {"key": "790", "latitude": 51.567373, "longitude": -0.363138, "name": "Roxbourne Medical Centre"}, {"key": "793", "latitude": 53.521897, "longitude": -1.39892, "name": "Wombwell Medical Centre"}, {"key": "794", "latitude": 51.505364, "longitude": -0.105775, "name": "Blackfriars Medical Practice"}, {"key": "795", "latitude": 51.542836, "longitude": -0.235526, "name": "Roundwood Park Medical Centre"}, {"key": "798", "latitude": 51.560468, "longitude": -0.290113, "name": "Dr Ross & Partners"}, {"key": "799", "latitude": 50.852881, "longitude": -0.567268, "name": "Arundel Surgery"}, {"key": "800", "latitude": 51.498482, "longitude": -0.010049, "name": "Island Medical Centre"}, {"key": "801", "latitude": 52.632837, "longitude": -2.491845, "name": "Ironbridge Medical Practice"}, {"key": "804", "latitude": 52.775699, "longitude": -0.376781, "name": "Bourne Galletly Practice"}, {"key": "806", "latitude": 51.547592, "longitude": -0.275394, "name": "The Surgery"}, {"key": "807", "latitude": 52.454325, "longitude": -0.110276, "name": "Rainbow Surgery"}, {"key": "808", "latitude": 51.511666, "longitude": -0.412216, "name": "Kincora Surgery"}, {"key": "813", "latitude": 54.801828, "longitude": -2.826247, "name": "Court Thorn Surgery"}, {"key": "814", "latitude": 51.583176, "longitude": -0.00905, "name": "Addison Road Medical Practice"}, {"key": "818", "latitude": 53.666146, "longitude": -2.773743, "name": "Croston Medical Centre"}, {"key": "819", "latitude": 51.036442, "longitude": -3.090916, "name": "Lyngford Park Surgery"}, {"key": "821", "latitude": 51.406032, "longitude": -2.317387, "name": "Batheaston Medical Centre"}, {"key": "822", "latitude": 51.322572, "longitude": -0.539824, "name": "The Clinic"}, {"key": "824", "latitude": 51.51621, "longitude": -0.211246, "name": "The Surgery"}, {"key": "825", "latitude": 51.744168, "longitude": -2.283616, "name": "Regent Street Surgery"}, {"key": "827", "latitude": 51.746885, "longitude": -2.282851, "name": "Stonehouse Health Clinic"}, {"key": "828", "latitude": 51.959518, "longitude": -2.298683, "name": "The Surgery"}, {"key": "829", "latitude": 51.86921, "longitude": -2.250039, "name": "The College Yard Surgery"}, {"key": "832", "latitude": 53.392725, "longitude": -2.061042, "name": "Marple Cottage Surgery"}, {"key": "834", "latitude": 52.347612, "longitude": 1.50789, "name": "Cutlers Hill Surgery"}, {"key": "836", "latitude": 52.930476, "longitude": -1.144908, "name": "Musters Medical Practice"}, {"key": "843", "latitude": 51.586099, "longitude": -0.277386, "name": "The Surgery"}, {"key": "845", "latitude": 51.241304, "longitude": -0.208192, "name": "The Wall House"}, {"key": "847", "latitude": 51.755079, "longitude": -1.261942, "name": "The Surgery"}, {"key": "848", "latitude": 51.68273, "longitude": -0.317147, "name": "The Red House Surgery"}, {"key": "849", "latitude": 51.582873, "longitude": -0.3533, "name": "The Pinner Road Surgery"}, {"key": "850", "latitude": 54.274278, "longitude": -3.212453, "name": "The Surgery"}, {"key": "851", "latitude": 51.819391, "longitude": -0.818637, "name": "Whitehill Surgery"}, {"key": "852", "latitude": 51.360366, "longitude": -0.107972, "name": "Violet Lane Medical Practice"}, {"key": "854", "latitude": 52.366603, "longitude": -2.054442, "name": "Catshill Village Surgery"}, {"key": "855", "latitude": 51.505551, "longitude": -0.419382, "name": "The Surgery"}, {"key": "858", "latitude": 51.746024, "longitude": -1.126572, "name": "Morland House Surgery"}, {"key": "859", "latitude": 52.2442, "longitude": 0.715741, "name": "Dr Jones & Partners"}, {"key": "862", "latitude": 52.376825, "longitude": -1.392766, "name": "The Surgery"}, {"key": "865", "latitude": 51.527941, "longitude": 0.103861, "name": "Thames View Health Clinic"}, {"key": "866", "latitude": 52.285217, "longitude": -1.590621, "name": "Cape Road Surgery"}, {"key": "868", "latitude": 51.586574, "longitude": -0.342874, "name": "Savita"}, {"key": "870", "latitude": 52.211409, "longitude": -1.005426, "name": "Bugbrooke Medical Practice"}, {"key": "874", "latitude": 54.754067, "longitude": -1.333039, "name": "Peterlee Health Community Hospital"}, {"key": "876", "latitude": 51.365024, "longitude": -0.147917, "name": "Maldon Road Surgery"}, {"key": "879", "latitude": 51.546404, "longitude": -0.139955, "name": "James Wigg Practice"}, {"key": "881", "latitude": 51.562225, "longitude": -0.382308, "name": "Dr Mistry"}, {"key": "883", "latitude": 51.606242, "longitude": -0.377077, "name": "Hatch End Medical Centre"}, {"key": "884", "latitude": 52.522119, "longitude": -1.474524, "name": "Queens Road Surgery"}, {"key": "885", "latitude": 51.729707, "longitude": -2.162379, "name": "Frithwood Surgery"}, {"key": "886", "latitude": 54.810206, "longitude": -2.439835, "name": "The Alston Medical Practice"}, {"key": "888", "latitude": 54.859304, "longitude": -1.57348, "name": "Bridge End Surgery"}, {"key": "889", "latitude": 51.747185, "longitude": -1.232493, "name": "Raglan House"}, {"key": "890", "latitude": 51.497611, "longitude": -0.426232, "name": "The Surgery"}, {"key": "893", "latitude": 51.522221, "longitude": 0.03253, "name": "Glen Road Medical Centre"}, {"key": "894", "latitude": 50.874302, "longitude": -1.019752, "name": "Stakes Lodge Surgery"}, {"key": "895", "latitude": 52.699728, "longitude": -2.752497, "name": "South Hermitage Surgery"}, {"key": "898", "latitude": 51.515197, "longitude": 0.032016, "name": "The Surgery"}, {"key": "904", "latitude": 53.230289, "longitude": -1.288663, "name": "Friendly Family Surgery"}, {"key": "905", "latitude": 53.798594, "longitude": -1.253519, "name": "Sherburn Group Practice"}, {"key": "906", "latitude": 51.564335, "longitude": -0.292579, "name": "Preston Medical Centre"}, {"key": "907", "latitude": 50.857326, "longitude": 0.463982, "name": "Albert Road Surgery"}, {"key": "910", "latitude": 51.567016, "longitude": -0.060057, "name": "Healy Medical Centre"}, {"key": "912", "latitude": 52.361961, "longitude": -2.158038, "name": "The Surgery"}, {"key": "913", "latitude": 51.645988, "longitude": -0.374588, "name": "Bushey Health Centre"}, {"key": "922", "latitude": 53.233943, "longitude": -1.43962, "name": "Ash Lodge"}, {"key": "924", "latitude": 51.562541, "longitude": -0.126124, "name": "The Medical Centre"}, {"key": "925", "latitude": 50.940288, "longitude": -1.428061, "name": "Aldermoor Health Centre"}, {"key": "926", "latitude": 52.928031, "longitude": -1.215186, "name": "The Oaks Medical Centre"}, {"key": "927", "latitude": 51.927073, "longitude": 0.985096, "name": "The Surgery"}, {"key": "929", "latitude": 51.248952, "longitude": -0.588338, "name": "Woodbridge Hill Surgery"}, {"key": "931", "latitude": 51.747198, "longitude": -2.216093, "name": "Locking Hill Surgery"}, {"key": "932", "latitude": 51.625746, "longitude": -0.390207, "name": "Consulting Rooms"}, {"key": "933", "latitude": 51.745004, "longitude": -0.968567, "name": "Trinity Health & Thame Health Centre"}, {"key": "934", "latitude": 51.486093, "longitude": -1.085905, "name": "The Boathouse Surgery"}, {"key": "936", "latitude": 50.821515, "longitude": -0.136211, "name": "The Surgery"}, {"key": "937", "latitude": 52.187459, "longitude": 0.177635, "name": "Cherry Hinton Medical Centre"}, {"key": "941", "latitude": 50.857687, "longitude": -2.165848, "name": "Eagle House Surgery"}, {"key": "944", "latitude": 54.468317, "longitude": -0.907874, "name": "Dale End Surgery"}, {"key": "945", "latitude": 51.596988, "longitude": -0.294546, "name": "Honeypot Medical Centre"}, {"key": "949", "latitude": 52.629621, "longitude": -1.927755, "name": "The Surgery"}, {"key": "951", "latitude": 51.401496, "longitude": -0.100581, "name": "The Parchmore Medical Centre"}, {"key": "952", "latitude": 53.231324, "longitude": -0.890883, "name": "Tuxford Medical Centre"}, {"key": "953", "latitude": 51.648031, "longitude": -0.447148, "name": "New Road Surgery"}, {"key": "956", "latitude": 50.845801, "longitude": -1.068743, "name": "The Surgery"}, {"key": "963", "latitude": 51.653049, "longitude": -0.109238, "name": "Dr Dissanayake & Partner"}, {"key": "964", "latitude": 51.882174, "longitude": -0.842621, "name": "Whitchurch Surgery"}, {"key": "965", "latitude": 52.673791, "longitude": -2.772357, "name": "The Beeches Medical Practice"}, {"key": "967", "latitude": 51.530579, "longitude": -0.207641, "name": "Queens Park Health Centre"}, {"key": "970", "latitude": 51.622648, "longitude": -0.105319, "name": "Gillan House Surgery"}, {"key": "971", "latitude": 51.757298, "longitude": -0.335878, "name": "Grange Street Surgery"}, {"key": "972", "latitude": 51.55534, "longitude": -0.362401, "name": "The Grove Medical Practice"}, {"key": "973", "latitude": 53.467586, "longitude": -3.001647, "name": "Bridge Road Medical Centre"}, {"key": "974", "latitude": 52.441573, "longitude": -2.110976, "name": "Wychbury Medical Centre"}, {"key": "976", "latitude": 53.419394, "longitude": -2.984564, "name": "Vauxhall Primary Health Care"}, {"key": "977", "latitude": 53.831434, "longitude": -2.602525, "name": "Berry Lane Medical Centre"}, {"key": "978", "latitude": 53.563205, "longitude": -0.091675, "name": "Pelham Medical Group"}, {"key": "982", "latitude": 51.462087, "longitude": -2.510659, "name": "The Orchard Medical Centre"}, {"key": "984", "latitude": 53.807811, "longitude": -1.549838, "name": "Leeds Student Medical Practice"}, {"key": "985", "latitude": 51.543458, "longitude": -0.200155, "name": "Brondesbury Medical Centre"}, {"key": "986", "latitude": 51.577313, "longitude": -0.099134, "name": "Bridge House Healthcare Centre"}, {"key": "988", "latitude": 53.21967, "longitude": -1.436077, "name": "Leyfield Surgery"}, {"key": "990", "latitude": 53.742181, "longitude": -0.199822, "name": "Hedon Group Practice"}, {"key": "991", "latitude": 50.813953, "longitude": -0.447347, "name": "The Barn Surgery"}, {"key": "994", "latitude": 53.384846, "longitude": -2.286712, "name": "The Maple Medical Centre"}, {"key": "995", "latitude": 50.816915, "longitude": -0.376837, "name": "The Surgery"}, {"key": "997", "latitude": 51.126187, "longitude": -2.737853, "name": "Vine Surgery"}, {"key": "998", "latitude": 52.859415, "longitude": -2.253515, "name": "The Crown Surgery"}, {"key": "999", "latitude": 51.766269, "longitude": -0.227021, "name": "Wrafton House Surgery"}, {"key": "1000", "latitude": 51.447353, "longitude": -2.488695, "name": "The Oaks Medical Practice"}, {"key": "1003", "latitude": 53.087367, "longitude": -2.234115, "name": "Kidsgrove Medical Centre"}, {"key": "1006", "latitude": 50.707797, "longitude": -2.444395, "name": "Queens Avenue Surgery"}, {"key": "1016", "latitude": 53.402873, "longitude": -2.177788, "name": "Edgeley Medical Practice"}, {"key": "1018", "latitude": 54.199165, "longitude": -2.946985, "name": "Cartmel Surgery"}, {"key": "1019", "latitude": 53.602151, "longitude": -2.550853, "name": "Pike View Medical Centre"}, {"key": "1020", "latitude": 51.439873, "longitude": -2.605958, "name": "Gaywood House Surgery"}, {"key": "1021", "latitude": 53.827609, "longitude": -2.608242, "name": "Stonebridge Surgery"}, {"key": "1026", "latitude": 51.45697, "longitude": -0.165386, "name": "The Heritage Medical Practice"}, {"key": "1027", "latitude": 52.466336, "longitude": -1.848418, "name": "The Park Medical Centre"}, {"key": "1028", "latitude": 51.342409, "longitude": -0.064573, "name": "Selsdon Park Medical Practice"}, {"key": "1030", "latitude": 51.441036, "longitude": -0.200875, "name": "Dr Christie"}, {"key": "1033", "latitude": 52.442323, "longitude": -2.835416, "name": "The Surgery"}, {"key": "1034", "latitude": 54.20894, "longitude": -3.268021, "name": "Waterloo House Surgery"}, {"key": "1035", "latitude": 53.467941, "longitude": -2.20046, "name": "West Gorton Medical Centre"}, {"key": "1036", "latitude": 51.573716, "longitude": 0.140105, "name": "Chadwell Heath Health Centre 1st Flr"}, {"key": "1037", "latitude": 50.811423, "longitude": -0.377041, "name": "Shelley Surgery"}, {"key": "1038", "latitude": 50.864714, "longitude": 0.605003, "name": "The Surgery"}, {"key": "1039", "latitude": 51.495609, "longitude": -0.112591, "name": "Lambeth Walk Group Practice"}, {"key": "1040", "latitude": 51.421738, "longitude": -0.161461, "name": "The Surgery"}, {"key": "1042", "latitude": 51.474618, "longitude": -0.093445, "name": "Camberwell Green Surgery"}, {"key": "1043", "latitude": 52.96943, "longitude": -1.624927, "name": "Brailsford Medical Centre"}, {"key": "1045", "latitude": 51.537921, "longitude": -0.185132, "name": "The Abbey Medical Centre"}, {"key": "1046", "latitude": 51.583541, "longitude": -0.13076, "name": "Queenswood Practice"}, {"key": "1047", "latitude": 51.080423, "longitude": 1.173384, "name": "The Manor Clinic"}, {"key": "1048", "latitude": 51.466527, "longitude": -2.589454, "name": "Montpelier Health Centre"}, {"key": "1051", "latitude": 51.870223, "longitude": 0.15857, "name": "Church Street Surgery"}, {"key": "1055", "latitude": 53.372189, "longitude": -2.31556, "name": "Shay Lane Medical Centre"}, {"key": "1056", "latitude": 54.0401, "longitude": -2.799365, "name": "Rosebank Medical Practice"}, {"key": "1059", "latitude": 53.620698, "longitude": -1.879229, "name": "Croft House Surgery"}, {"key": "1061", "latitude": 51.558216, "longitude": 0.007604, "name": "Harrow Road Surgery"}, {"key": "1062", "latitude": 51.224458, "longitude": 0.337767, "name": "Hadlow Medical Centre"}, {"key": "1066", "latitude": 51.553171, "longitude": -0.163076, "name": "The Hampstead Group Practice"}, {"key": "1069", "latitude": 53.73956, "longitude": -2.95037, "name": "Holland House"}, {"key": "1072", "latitude": 51.747558, "longitude": 0.48396, "name": "Humber Road Surgery"}, {"key": "1074", "latitude": 51.255633, "longitude": 0.4255, "name": "Dr Forsythe & Partners"}, {"key": "1077", "latitude": 53.420371, "longitude": -2.231819, "name": "Didsbury Medical Centre"}, {"key": "1079", "latitude": 51.426939, "longitude": -0.677163, "name": "Green Meadows Partnership"}, {"key": "1080", "latitude": 51.201419, "longitude": 0.06374, "name": "Edenbridge Medical Practice"}, {"key": "1082", "latitude": 53.510547, "longitude": -2.210659, "name": "Conran Medical Centre"}, {"key": "1084", "latitude": 53.913329, "longitude": -2.184139, "name": "Barnoldswick Medical Centre"}, {"key": "1086", "latitude": 51.542326, "longitude": -0.451686, "name": "Acorn Medical Centre"}, {"key": "1087", "latitude": 51.542708, "longitude": -0.172539, "name": "Swiss Cottage Surgery"}, {"key": "1089", "latitude": 51.524186, "longitude": -0.205903, "name": "Golborne Medical Centre"}, {"key": "1090", "latitude": 50.843917, "longitude": -1.06817, "name": "The Health House"}, {"key": "1091", "latitude": 51.071485, "longitude": 1.087023, "name": "Sun Lane Surgery"}, {"key": "1092", "latitude": 51.606727, "longitude": -0.110773, "name": "Arcadian Gardens Surgery"}, {"key": "1093", "latitude": 51.541786, "longitude": 0.714012, "name": "Queensway Surgery"}, {"key": "1094", "latitude": 51.223269, "longitude": -2.523892, "name": "Oakhill Surgery"}, {"key": "1097", "latitude": 50.863576, "longitude": -1.27498, "name": "Lockswood Surgery"}, {"key": "1098", "latitude": 51.397342, "longitude": -0.103413, "name": "The Surgery"}, {"key": "1099", "latitude": 53.257964, "longitude": -2.12262, "name": "Waters Green Medical Centre"}, {"key": "1100", "latitude": 54.984451, "longitude": -1.660225, "name": "Fenham Hall Medical Group"}, {"key": "1101", "latitude": 52.190415, "longitude": -2.235045, "name": "Henwick Halt Medical Centre"}, {"key": "1102", "latitude": 51.940348, "longitude": -1.545584, "name": "West Street Surgery"}, {"key": "1103", "latitude": 51.186037, "longitude": -2.54672, "name": "Park Road Medical Practice"}, {"key": "1105", "latitude": 51.413308, "longitude": -0.08482, "name": "The Surgery"}, {"key": "1114", "latitude": 51.473666, "longitude": -0.154867, "name": "Battersea Field Practice"}, {"key": "1115", "latitude": 51.45279, "longitude": -0.15519, "name": "Thurleigh Road Practice"}, {"key": "1116", "latitude": 51.669079, "longitude": -0.6175, "name": "Rectory Meadow Surgery"}, {"key": "1118", "latitude": 53.787328, "longitude": -2.235403, "name": "Oxford Road Medical Centre"}, {"key": "1119", "latitude": 51.587688, "longitude": -0.085666, "name": "Dr Sivasinmyananthan"}, {"key": "1120", "latitude": 51.495313, "longitude": -0.541284, "name": "Langley Health Centre"}, {"key": "1121", "latitude": 53.449136, "longitude": -2.98492, "name": "Dr Goldberg"}, {"key": "1122", "latitude": 52.907846, "longitude": -2.896494, "name": "Ellesmere Medical Practice"}, {"key": "1123", "latitude": 54.968173, "longitude": -1.630965, "name": "Cruddas Park Surgery"}, {"key": "1126", "latitude": 51.547532, "longitude": -0.233873, "name": "The Medical Centre"}, {"key": "1127", "latitude": 53.653634, "longitude": -2.967758, "name": "Row Lane Surgery"}, {"key": "1128", "latitude": 50.891328, "longitude": -0.958812, "name": "Rowlands Castle Surgery"}, {"key": "1129", "latitude": 52.702675, "longitude": -2.012892, "name": "Moss Street Surgery"}, {"key": "1130", "latitude": 51.441124, "longitude": -0.221362, "name": "The Inner Park Road Health Centre"}, {"key": "1131", "latitude": 51.786148, "longitude": -1.509585, "name": "Deer Park Medical Centre"}, {"key": "1132", "latitude": 51.490256, "longitude": -0.035227, "name": "Grove Medical Centre"}, {"key": "1133", "latitude": 52.058534, "longitude": -2.720274, "name": "Moorfield House Surgery"}, {"key": "1138", "latitude": 51.1357, "longitude": -3.00045, "name": "East Quay Medical Centre"}, {"key": "1139", "latitude": 53.748112, "longitude": -2.672299, "name": "Riverside Medical Centre"}, {"key": "1140", "latitude": 51.556029, "longitude": -0.165647, "name": "Park End Surgery"}, {"key": "1145", "latitude": 51.294302, "longitude": -0.774519, "name": "Jenner House"}, {"key": "1149", "latitude": 51.623784, "longitude": -0.059836, "name": "The Surgery"}, {"key": "1150", "latitude": 51.39907, "longitude": -1.446605, "name": "The Surgery"}, {"key": "1152", "latitude": 51.446246, "longitude": -2.547938, "name": "Brooklea Health Centre"}, {"key": "1153", "latitude": 51.462038, "longitude": -2.603792, "name": "Hampton House Health Centre"}, {"key": "1154", "latitude": 51.428746, "longitude": -2.596274, "name": "William Budd Health Centre"}, {"key": "1155", "latitude": 51.542876, "longitude": -0.294219, "name": "Alperton Medical Centre"}, {"key": "1156", "latitude": 50.813513, "longitude": -0.359296, "name": "Selden Road Surgery"}, {"key": "1158", "latitude": 52.379832, "longitude": -2.476334, "name": "The Medical Centre"}, {"key": "1159", "latitude": 51.475366, "longitude": -2.598308, "name": "Westcliffe House"}, {"key": "1160", "latitude": 53.253804, "longitude": -2.537387, "name": "Firdale Medical Centre"}, {"key": "1163", "latitude": 51.127494, "longitude": 1.312098, "name": "Pencester Surgery"}, {"key": "1164", "latitude": 51.555415, "longitude": 0.0021, "name": "Langthorne Health Centre"}, {"key": "1169", "latitude": 51.489998, "longitude": -2.576275, "name": "Horfield Health Centre"}, {"key": "1170", "latitude": 51.266482, "longitude": -2.281552, "name": "St. Luke`s Surgery"}, {"key": "1171", "latitude": 51.204365, "longitude": -3.476877, "name": "Harley House Surgery"}, {"key": "1172", "latitude": 51.388132, "longitude": 1.381748, "name": "The Surgery"}, {"key": "1177", "latitude": 53.377628, "longitude": -3.121417, "name": "Greasby Health Centre"}, {"key": "1178", "latitude": 51.571444, "longitude": -0.125007, "name": "The Rise Group Practice"}, {"key": "1180", "latitude": 51.511049, "longitude": 0.366406, "name": "The Surgery"}, {"key": "1181", "latitude": 51.891398, "longitude": -1.138371, "name": "Langford Medical Practice"}, {"key": "1184", "latitude": 51.579266, "longitude": -0.397406, "name": "Eastcote Health Centre"}, {"key": "1188", "latitude": 51.459968, "longitude": -0.179391, "name": "Dr Haider"}, {"key": "1191", "latitude": 51.671309, "longitude": -0.40142, "name": "The Callowland Surgery"}, {"key": "1192", "latitude": 54.836848, "longitude": -1.348911, "name": "Deneside Medical Centre"}, {"key": "1197", "latitude": 53.393998, "longitude": -2.147089, "name": "Bracondale Medical Centre"}, {"key": "1199", "latitude": 51.44329, "longitude": -0.217699, "name": "St Paul`s Cottage"}, {"key": "1200", "latitude": 54.973862, "longitude": -2.012702, "name": "Corbridge Health Centre"}, {"key": "1202", "latitude": 51.44085, "longitude": -0.149067, "name": "Balham Health Centre"}, {"key": "1205", "latitude": 53.543638, "longitude": -2.902223, "name": "The Surgery"}, {"key": "1209", "latitude": 52.595468, "longitude": -2.203683, "name": "Lakeside Medical Centre"}, {"key": "1210", "latitude": 51.600107, "longitude": 0.164768, "name": "The Surgery"}, {"key": "1211", "latitude": 53.564436, "longitude": -0.112579, "name": "The Surgery"}, {"key": "1212", "latitude": 51.572063, "longitude": -0.292809, "name": "Uxendon Crescent Surgery"}, {"key": "1214", "latitude": 51.594563, "longitude": -0.14424, "name": "Rutland House Surgery"}, {"key": "1216", "latitude": 52.118273, "longitude": -2.402108, "name": "The Surgery"}, {"key": "1217", "latitude": 51.674558, "longitude": -0.040104, "name": "Freezywater Primary Care Centre"}, {"key": "1219", "latitude": 51.550346, "longitude": -0.219557, "name": "Walm Lane Surgery"}, {"key": "1220", "latitude": 50.806715, "longitude": -0.40481, "name": "Pheonix Surgery"}, {"key": "1221", "latitude": 51.583768, "longitude": -0.340912, "name": "Headstone Road Surgery"}, {"key": "1223", "latitude": 51.607188, "longitude": -0.1137, "name": "Evergreen House Surgery"}, {"key": "1224", "latitude": 51.459968, "longitude": -0.179391, "name": "Dr K Begg"}, {"key": "1230", "latitude": 51.59785, "longitude": -0.290196, "name": "Zain Medical Centre"}, {"key": "1231", "latitude": 53.042198, "longitude": -1.402822, "name": "Ivy Grove Surgery"}, {"key": "1233", "latitude": 50.809243, "longitude": -2.474324, "name": "The Surgery"}, {"key": "1237", "latitude": 51.597637, "longitude": -0.278639, "name": "Dr J J Goldsteine"}, {"key": "1238", "latitude": 50.713819, "longitude": -3.499477, "name": "Wonford Green Surgery"}, {"key": "1239", "latitude": 53.379925, "longitude": -2.265017, "name": "Cornishway Group Practice"}, {"key": "1240", "latitude": 51.515843, "longitude": -0.41122, "name": "Townfield Doctors Surgery"}, {"key": "1241", "latitude": 51.561556, "longitude": -0.145627, "name": "The Surgery"}, {"key": "1242", "latitude": 51.58514, "longitude": -0.179902, "name": "Heathfield Medical Centre"}, {"key": "1245", "latitude": 51.545691, "longitude": -0.29919, "name": "Dr S Patel"}, {"key": "1253", "latitude": 51.359148, "longitude": -0.312059, "name": "Merrit Medical Centre"}, {"key": "1255", "latitude": 52.138364, "longitude": 0.073806, "name": "The Surgery"}, {"key": "1258", "latitude": 51.479685, "longitude": -2.526566, "name": "The Fishponds Family Practice"}, {"key": "1260", "latitude": 51.561586, "longitude": -0.332746, "name": "Dr Mehta & Dr Dattani"}, {"key": "1261", "latitude": 51.537491, "longitude": 0.033023, "name": "Dr Umrani & Partners"}, {"key": "1262", "latitude": 51.557463, "longitude": -0.08946, "name": "Statham Grove Surgery"}, {"key": "1263", "latitude": 51.537311, "longitude": 0.025228, "name": "East End Medical Centre"}, {"key": "1265", "latitude": 53.390044, "longitude": -2.191072, "name": "The Surgery"}, {"key": "1267", "latitude": 51.537447, "longitude": 0.052589, "name": "East Ham Medical Centre"}, {"key": "1271", "latitude": 51.544651, "longitude": 0.004714, "name": "Stratford Health Centre"}, {"key": "1272", "latitude": 51.589103, "longitude": -0.078706, "name": "Lawrence House Surgery"}, {"key": "1273", "latitude": 51.515573, "longitude": 0.056362, "name": "Tollgate Medical Centre"}, {"key": "1274", "latitude": 51.52521, "longitude": 0.027661, "name": "Green Gates Medical Centre"}, {"key": "1275", "latitude": 51.553797, "longitude": -0.072621, "name": "Somerford Grove Practice"}, {"key": "1276", "latitude": 51.404579, "longitude": -0.174025, "name": "The Surgery"}, {"key": "1277", "latitude": 51.513746, "longitude": -0.055203, "name": "East One Health"}, {"key": "1284", "latitude": 51.55184, "longitude": 0.051304, "name": "The Surgery"}, {"key": "1286", "latitude": 52.577354, "longitude": -1.806688, "name": "Tudor Practice"}, {"key": "1288", "latitude": 51.603291, "longitude": -0.262021, "name": "Woodcroft Medical Centre"}, {"key": "1292", "latitude": 52.487168, "longitude": -1.837081, "name": "Fernbank Medical Centre"}, {"key": "1295", "latitude": 51.577157, "longitude": 0.064452, "name": "Gantshill Medical Centre"}, {"key": "1298", "latitude": 52.06713, "longitude": -1.320138, "name": "Woodlands Surgery"}, {"key": "1311", "latitude": 51.577814, "longitude": -0.263123, "name": "Fryent Medical Centre"}, {"key": "1324", "latitude": 55.013929, "longitude": -1.64537, "name": "The Park Medical Group"}, {"key": "1326", "latitude": 51.558731, "longitude": -0.24612, "name": "Gladstone Medical Centre"}, {"key": "1329", "latitude": 51.76359, "longitude": -0.011848, "name": "Amwell Street Surgery"}, {"key": "1330", "latitude": 53.398246, "longitude": -3.04649, "name": "Cavendish Medical Centre"}, {"key": "1331", "latitude": 51.376371, "longitude": -2.354321, "name": "Widcombe Surgery"}, {"key": "1333", "latitude": 54.136451, "longitude": -1.526892, "name": "The Surgery"}, {"key": "1334", "latitude": 54.221883, "longitude": -1.656036, "name": "The Surgery"}, {"key": "1335", "latitude": 54.766707, "longitude": -1.320988, "name": "Jupiter House Surgery"}, {"key": "1342", "latitude": 51.533232, "longitude": -2.494761, "name": "Frome Valley Medical Centre"}, {"key": "1346", "latitude": 51.443732, "longitude": -0.967755, "name": "Milman Road Health Centre"}, {"key": "1347", "latitude": 53.967313, "longitude": -2.444001, "name": "Slaidburn Medical Centre"}, {"key": "1348", "latitude": 51.577651, "longitude": 0.053722, "name": "The Surgery"}, {"key": "1349", "latitude": 51.875838, "longitude": -0.279032, "name": "Whitwell Surgery"}, {"key": "1350", "latitude": 51.383146, "longitude": 1.338299, "name": "Westgate Surgery"}, {"key": "1352", "latitude": 51.596366, "longitude": 0.072109, "name": "The Fullwell Avenue Surgery"}, {"key": "1353", "latitude": 51.577646, "longitude": -0.424566, "name": "St Martins Medical Centre"}, {"key": "1357", "latitude": 51.519684, "longitude": -0.408587, "name": "The Warren Medical Centre"}, {"key": "1360", "latitude": 51.645831, "longitude": -0.416365, "name": "Holywell Surgery"}, {"key": "1361", "latitude": 51.118984, "longitude": -0.828613, "name": "Badgers Wood Surgery"}, {"key": "1363", "latitude": 53.397228, "longitude": -2.323566, "name": "Timperley Health Centre"}, {"key": "1364", "latitude": 52.482047, "longitude": -2.122349, "name": "Albion House"}, {"key": "1366", "latitude": 53.538299, "longitude": -2.75887, "name": "Birleywood Health Centre"}, {"key": "1370", "latitude": 50.801796, "longitude": -1.893293, "name": "The Orchid House Surgery"}, {"key": "1371", "latitude": 51.302735, "longitude": -0.725507, "name": "Frimley Green Medical Centre"}, {"key": "1375", "latitude": 53.415635, "longitude": -2.288936, "name": "Boundary House Medical Centre"}, {"key": "1376", "latitude": 52.728047, "longitude": -2.721619, "name": "Albert Road Medical Centre"}, {"key": "1377", "latitude": 51.797477, "longitude": 0.637546, "name": "Fern House Surgery"}, {"key": "1379", "latitude": 51.540927, "longitude": 0.076164, "name": "Victoria Health Centre"}, {"key": "1381", "latitude": 51.366526, "longitude": 1.417675, "name": "The Mockett`s Wood Surgery"}, {"key": "1383", "latitude": 53.09787, "longitude": -2.427003, "name": "The Hungerford Medical Centre"}, {"key": "1388", "latitude": 51.571705, "longitude": -0.354006, "name": "Shaftesbury Medical Centre"}, {"key": "1389", "latitude": 51.607786, "longitude": -0.558045, "name": "The Misbourne Practice"}, {"key": "1390", "latitude": 51.545474, "longitude": 0.036278, "name": "Katherine Road Medical Centre"}, {"key": "1394", "latitude": 53.791428, "longitude": -2.23913, "name": "Rosehill Surgery"}, {"key": "1395", "latitude": 51.506454, "longitude": -0.251817, "name": "The Surgery"}, {"key": "1398", "latitude": 52.957232, "longitude": -1.146194, "name": "Victoria Health Centre"}, {"key": "1399", "latitude": 51.51087, "longitude": -0.382255, "name": "Sunrise Medical Centre"}, {"key": "1400", "latitude": 53.408423, "longitude": -2.967597, "name": "Brownlow Group Practice"}, {"key": "1401", "latitude": 51.451908, "longitude": -0.135234, "name": "The Clapham Park Surgery"}, {"key": "1402", "latitude": 51.556256, "longitude": -1.754341, "name": "The Kingswood Surgery"}, {"key": "1403", "latitude": 51.540536, "longitude": -0.318331, "name": "Hillview Surgery"}, {"key": "1405", "latitude": 51.392418, "longitude": -0.066761, "name": "Portland Medical Centre"}, {"key": "1407", "latitude": 54.975132, "longitude": -1.614763, "name": "University Medical Centre"}, {"key": "1408", "latitude": 53.695744, "longitude": -2.471427, "name": "Darwen Health Centre"}, {"key": "1411", "latitude": 50.871526, "longitude": -1.27362, "name": "The Surgery"}, {"key": "1413", "latitude": 53.352582, "longitude": -2.215572, "name": "Wilmslow Road Medical Centre"}, {"key": "1414", "latitude": 52.587273, "longitude": -1.827907, "name": "Four Oaks Medical Centre"}, {"key": "1420", "latitude": 54.103615, "longitude": -1.108927, "name": "The Surgery"}, {"key": "1421", "latitude": 51.597178, "longitude": -0.094006, "name": "The Surgery"}, {"key": "1423", "latitude": 51.563894, "longitude": -0.276552, "name": "Chalkhill Health Centre"}, {"key": "1424", "latitude": 51.457547, "longitude": -2.572685, "name": "Lawrence Hill Health Centre"}, {"key": "1425", "latitude": 51.514658, "longitude": -0.470221, "name": "Otterfield Medical Centre"}, {"key": "1427", "latitude": 51.484457, "longitude": -2.758269, "name": "Harbourside Family Practice"}, {"key": "1428", "latitude": 52.32438, "longitude": -0.614041, "name": "Spinney Brook Medical Centre"}, {"key": "1434", "latitude": 50.867896, "longitude": -2.965004, "name": "Tawstock Medical Centre"}, {"key": "1435", "latitude": 51.552011, "longitude": -0.399417, "name": "The Surgery"}, {"key": "1436", "latitude": 51.706179, "longitude": 0.123958, "name": "The Limes Medical Centre"}, {"key": "1441", "latitude": 52.290335, "longitude": -0.605178, "name": "Rushden Medical Centre"}, {"key": "1442", "latitude": 53.821239, "longitude": -3.04306, "name": "Buchanan Medical Centre"}, {"key": "1443", "latitude": 51.667723, "longitude": -0.566641, "name": "Little Chalfont Surgery"}, {"key": "1446", "latitude": 51.460403, "longitude": -1.04197, "name": "Westwood Road Surgery"}, {"key": "1447", "latitude": 53.794738, "longitude": -1.66397, "name": "Pudsey Health Centre"}, {"key": "1452", "latitude": 51.542472, "longitude": -0.263604, "name": "Craven Park Health Centre"}, {"key": "1453", "latitude": 51.519317, "longitude": 0.427407, "name": "Hassengate Medical Centre"}, {"key": "1455", "latitude": 52.116731, "longitude": -1.320027, "name": "Cropredy Surgery"}, {"key": "1456", "latitude": 50.364834, "longitude": -4.150356, "name": "West Hoe Surgery"}, {"key": "1461", "latitude": 54.988381, "longitude": -1.420585, "name": "Ravensworth Surgery"}, {"key": "1463", "latitude": 52.498157, "longitude": -2.160324, "name": "Kingswinford Medical Practice"}, {"key": "1464", "latitude": 51.593351, "longitude": -0.29614, "name": "Charlton Medical Centre"}, {"key": "1467", "latitude": 51.898041, "longitude": -0.71666, "name": "Ashcroft Surgery"}, {"key": "1470", "latitude": 54.962972, "longitude": -1.603663, "name": "Health Centre"}, {"key": "1471", "latitude": 51.220758, "longitude": -0.784377, "name": "Farnham Hospital & Centre For Health"}, {"key": "1473", "latitude": 50.91716, "longitude": 0.483675, "name": "Martins Oak Surgery"}, {"key": "1474", "latitude": 51.729336, "longitude": 0.678834, "name": "Longfield Medical Centre"}, {"key": "1475", "latitude": 50.379001, "longitude": -4.166779, "name": "Stoke Surgery"}, {"key": "1477", "latitude": 51.465097, "longitude": -2.612382, "name": "Whiteladies Medical Group"}, {"key": "1478", "latitude": 51.538402, "longitude": -0.253535, "name": "Greenhill Park Medical Centre"}, {"key": "1479", "latitude": 51.608939, "longitude": -0.067715, "name": "Snells Park"}, {"key": "1480", "latitude": 51.536897, "longitude": -0.20448, "name": "Lonsdale Medical Centre"}, {"key": "1482", "latitude": 51.542472, "longitude": -0.263604, "name": "Craven Park Health Centre"}, {"key": "1483", "latitude": 51.550787, "longitude": -0.335968, "name": "Elm Trees Surgery"}, {"key": "1487", "latitude": 51.543548, "longitude": -0.161257, "name": "Adelaide Medical Centre"}, {"key": "1488", "latitude": 51.812546, "longitude": 0.147747, "name": "Central Surgery"}, {"key": "1492", "latitude": 51.531935, "longitude": 0.186418, "name": "Dr Subramanian"}, {"key": "1495", "latitude": 50.238912, "longitude": -3.769118, "name": "Redfern Health Centre"}, {"key": "1496", "latitude": 50.407893, "longitude": -4.18185, "name": "Chard Road Surgery"}, {"key": "1497", "latitude": 51.511899, "longitude": -0.472446, "name": "High Street Practice"}, {"key": "1498", "latitude": 53.453882, "longitude": -2.299481, "name": "Chester Road Surgery"}, {"key": "1499", "latitude": 54.993108, "longitude": -1.698725, "name": "Denton Park Medical Group"}, {"key": "1500", "latitude": 50.370562, "longitude": -4.155762, "name": "Dr T Aughey"}, {"key": "1505", "latitude": 51.225619, "longitude": -2.314912, "name": "The Frome Medical Practice"}, {"key": "1506", "latitude": 52.460524, "longitude": -1.777529, "name": "Dr Bhinder Jheeta"}, {"key": "1508", "latitude": 51.230256, "longitude": -1.340372, "name": "Whitchurch Surgery"}, {"key": "1509", "latitude": 51.585869, "longitude": -0.350247, "name": "Pinner View Medical Centre"}, {"key": "1511", "latitude": 54.962972, "longitude": -1.603663, "name": "Bridges Medical Practice"}, {"key": "1512", "latitude": 53.591209, "longitude": -1.849234, "name": "Meltham Village Surgery"}, {"key": "1514", "latitude": 52.057682, "longitude": -2.228951, "name": "The Surgery"}, {"key": "1516", "latitude": 51.746042, "longitude": -1.201196, "name": "Wood Farm Health Centre"}, {"key": "1517", "latitude": 51.564495, "longitude": -0.266689, "name": "Tudor House Medical Centre"}, {"key": "1518", "latitude": 53.820839, "longitude": -3.043658, "name": "Elizabeth Street Practice"}, {"key": "1519", "latitude": 51.370409, "longitude": -2.908301, "name": "Riverbank Medical Centre"}, {"key": "1520", "latitude": 53.057067, "longitude": -2.175867, "name": "Brook Medical Centre"}, {"key": "1523", "latitude": 53.857386, "longitude": -2.167853, "name": "Colne Corner Surgery"}, {"key": "1526", "latitude": 54.989588, "longitude": -1.538843, "name": "Portugal Place Health Centre"}, {"key": "1527", "latitude": 53.417873, "longitude": -2.303561, "name": "The Health Centre"}, {"key": "1528", "latitude": 50.723629, "longitude": -1.958467, "name": "The Surgery"}, {"key": "1529", "latitude": 51.540005, "longitude": -0.255521, "name": "Park Road Surgery"}, {"key": "1530", "latitude": 51.464336, "longitude": -2.618518, "name": "Pembroke Road Surgery"}, {"key": "1531", "latitude": 51.5469, "longitude": -0.230148, "name": "The Surgery"}, {"key": "1532", "latitude": 51.263383, "longitude": -2.937219, "name": "Brent Area Medical Centre"}, {"key": "1534", "latitude": 53.473649, "longitude": -2.164901, "name": "The Family Surgery"}, {"key": "1536", "latitude": 53.781939, "longitude": -2.878541, "name": "Kirkham Health Centre"}, {"key": "1537", "latitude": 54.955173, "longitude": -1.723602, "name": "Oldwell Medical Partnership"}, {"key": "1539", "latitude": 51.539023, "longitude": -0.091905, "name": "Elizabeth Avenue Group Practice"}, {"key": "1540", "latitude": 50.975607, "longitude": -1.436924, "name": "The North Baddesley Surgery"}, {"key": "1542", "latitude": 53.540745, "longitude": -2.741349, "name": "Hall Green Surgery"}, {"key": "1543", "latitude": 51.019194, "longitude": -3.112895, "name": "French Weir Health Centre"}, {"key": "1544", "latitude": 53.533823, "longitude": -1.370689, "name": "Garland House Surgery"}, {"key": "1545", "latitude": 51.654076, "longitude": -0.448705, "name": "Baldwins Lane Surgery"}, {"key": "1547", "latitude": 53.406431, "longitude": -2.265032, "name": "Northenden Group Practice"}, {"key": "1548", "latitude": 52.599265, "longitude": -2.081794, "name": "The Health Centre"}, {"key": "1549", "latitude": 50.72043, "longitude": -1.892613, "name": "Poole Road Medical Centre"}, {"key": "1550", "latitude": 51.695129, "longitude": -0.179588, "name": "Parkfield Medical Centre"}, {"key": "1551", "latitude": 51.534531, "longitude": -0.242999, "name": "Freuchen Medical Centre"}, {"key": "1552", "latitude": 51.794335, "longitude": -0.079827, "name": "Castlegate Surgery"}, {"key": "1557", "latitude": 50.722889, "longitude": -1.951569, "name": "Wessex Road Surgery"}, {"key": "1558", "latitude": 51.563877, "longitude": -0.320687, "name": "Dr Mehta & Partners"}, {"key": "1559", "latitude": 50.84043, "longitude": 0.465081, "name": "Collington Surgery"}, {"key": "1561", "latitude": 51.429181, "longitude": -0.039215, "name": "Sydenham Green Group Practice"}, {"key": "1564", "latitude": 53.37556, "longitude": -3.015028, "name": "Gladstone Medical Centre"}, {"key": "1565", "latitude": 51.470982, "longitude": -0.973389, "name": "Balmore Park Surgery"}, {"key": "1566", "latitude": 51.401824, "longitude": -0.134454, "name": "Wide Way Health Clinic"}, {"key": "1570", "latitude": 52.715179, "longitude": -2.437109, "name": "Donnington Medical Practice"}, {"key": "1571", "latitude": 51.571216, "longitude": -0.425164, "name": "The Medical Centre"}, {"key": "1573", "latitude": 51.555095, "longitude": -0.095343, "name": "Highbury Grange Health Centre"}, {"key": "1576", "latitude": 52.120514, "longitude": -1.743002, "name": "The Surgery"}, {"key": "1577", "latitude": 51.535597, "longitude": -0.100772, "name": "St Peters Street Medical Practice"}, {"key": "1578", "latitude": 51.634431, "longitude": -0.722865, "name": "Kingswood Surgery"}, {"key": "1579", "latitude": 51.542184, "longitude": -0.156322, "name": "Primrose Hill Surgery"}, {"key": "1580", "latitude": 51.313252, "longitude": -0.745978, "name": "The Surgery"}, {"key": "1581", "latitude": 51.972342, "longitude": -0.225998, "name": "The Sollershott Surgery"}, {"key": "1582", "latitude": 51.460833, "longitude": -0.163474, "name": "Battersea Rise Group Practice"}, {"key": "1583", "latitude": 51.586546, "longitude": -0.296929, "name": "The Surgery"}, {"key": "1585", "latitude": 53.742709, "longitude": -0.200254, "name": "Church View Surgery"}, {"key": "1588", "latitude": 51.591302, "longitude": -0.249547, "name": "The Surgery"}, {"key": "1589", "latitude": 51.564481, "longitude": -0.227792, "name": "The Oxgate Gardens Surgery"}, {"key": "1590", "latitude": 51.476873, "longitude": -0.238274, "name": "Palacci (Castelnau)"}, {"key": "1597", "latitude": 51.603291, "longitude": -0.262021, "name": "Watling Medical Centre"}, {"key": "1598", "latitude": 51.018174, "longitude": -2.579685, "name": "Queen Camel Medical Centre"}, {"key": "1599", "latitude": 53.749882, "longitude": -2.503894, "name": "The Surgery"}, {"key": "1600", "latitude": 51.534904, "longitude": -0.245061, "name": "Doctors Surgery"}, {"key": "1601", "latitude": 51.413438, "longitude": -2.571861, "name": "Whitchurch Health Centre"}, {"key": "1602", "latitude": 54.312706, "longitude": -2.737133, "name": "The James Cochrane Practice"}, {"key": "1607", "latitude": 52.67874, "longitude": -2.955353, "name": "Westbury Medical Centre"}, {"key": "1608", "latitude": 50.37266, "longitude": -4.128292, "name": "Friary House Surgery"}, {"key": "1613", "latitude": 51.029111, "longitude": -3.080969, "name": "The Crown Medical Centre"}, {"key": "1614", "latitude": 50.719722, "longitude": -1.975441, "name": "Poole Town Surgery"}, {"key": "1615", "latitude": 51.550588, "longitude": -0.260251, "name": "Brentfield Medical Centre"}, {"key": "1618", "latitude": 51.426252, "longitude": -0.73138, "name": "The Gainsborough Practice"}, {"key": "1622", "latitude": 53.838042, "longitude": -2.21885, "name": "Yarnspinners Primary Health Care Centr"}, {"key": "1628", "latitude": 54.973433, "longitude": -1.507378, "name": "The Health Centre"}, {"key": "1630", "latitude": 51.594357, "longitude": -0.033813, "name": "Claremont Medical Centre"}, {"key": "1632", "latitude": 53.529872, "longitude": -2.423902, "name": "Cherry Medical Centre"}, {"key": "1633", "latitude": 51.436247, "longitude": -2.588491, "name": "St John`s Health Centre"}, {"key": "1635", "latitude": 51.576435, "longitude": 0.085981, "name": "Newbury Park Health Centre"}, {"key": "1637", "latitude": 53.556704, "longitude": -1.490827, "name": "Victoria Medical Centre"}, {"key": "1642", "latitude": 53.433191, "longitude": -3.045031, "name": "Health Centre"}, {"key": "1646", "latitude": 50.3847, "longitude": -4.135865, "name": "Hyde Park Surgery"}, {"key": "1647", "latitude": 52.635373, "longitude": -2.448638, "name": "Church Close Surgery"}, {"key": "1649", "latitude": 50.760837, "longitude": -1.861216, "name": "James Fisher Medical Centre"}, {"key": "1650", "latitude": 53.738511, "longitude": -2.475711, "name": "St Georges Surgery"}, {"key": "1652", "latitude": 53.524288, "longitude": -2.398384, "name": "The Gill Medical Centre"}, {"key": "1660", "latitude": 50.750528, "longitude": -1.837121, "name": "Woodlea House"}, {"key": "1662", "latitude": 53.547954, "longitude": -1.506899, "name": "Dodworth Road Practice"}, {"key": "1664", "latitude": 51.464095, "longitude": -0.163862, "name": "Lavender Hill Surgery"}, {"key": "1665", "latitude": 53.502881, "longitude": -2.420888, "name": "Orchard Medical Centre"}, {"key": "1666", "latitude": 51.547773, "longitude": -0.067207, "name": "Sandringham Practice"}, {"key": "1667", "latitude": 51.586253, "longitude": -0.068331, "name": "Tynemouth Medical Practice"}, {"key": "1668", "latitude": 53.389393, "longitude": -2.169883, "name": "Adswood Road Surgery"}, {"key": "1669", "latitude": 51.547821, "longitude": -1.761903, "name": "Lawn Medical Centre"}, {"key": "1672", "latitude": 51.632475, "longitude": -0.054245, "name": "Forest Primary Care Centre"}, {"key": "1675", "latitude": 51.422144, "longitude": -0.139323, "name": "The Surgery"}, {"key": "1683", "latitude": 54.966674, "longitude": -1.55655, "name": "St. Anthony`s Health Centre"}, {"key": "1686", "latitude": 52.212387, "longitude": -0.902688, "name": "Penvale Medical Centre"}, {"key": "1688", "latitude": 51.569142, "longitude": -0.027903, "name": "The Surgery"}, {"key": "1695", "latitude": 51.518942, "longitude": -0.37554, "name": "The Surgery"}, {"key": "1700", "latitude": 51.554535, "longitude": -1.735746, "name": "Eldene Health Centre"}, {"key": "1701", "latitude": 51.601862, "longitude": -0.634727, "name": "Millbarn Medical Centre"}, {"key": "1702", "latitude": 51.411894, "longitude": -0.831052, "name": "The Surgery"}, {"key": "1703", "latitude": 51.542256, "longitude": 0.078216, "name": "Abbey Medical Centre"}, {"key": "1706", "latitude": 51.817864, "longitude": -0.789545, "name": "Oakfield Surgery"}, {"key": "1709", "latitude": 51.203152, "longitude": -0.614545, "name": "Binscombe Medical Centre"}, {"key": "1711", "latitude": 53.399191, "longitude": -0.777679, "name": "Caskgate Street Surgery"}, {"key": "1712", "latitude": 51.533527, "longitude": -0.086829, "name": "Shoreditch Park Surgery"}, {"key": "1713", "latitude": 53.586042, "longitude": -1.530233, "name": "Darton Health Centre"}, {"key": "1714", "latitude": 54.992751, "longitude": -1.531852, "name": "Park Road Medical Practice"}, {"key": "1715", "latitude": 50.908884, "longitude": -3.492865, "name": "Castle Place Practice"}, {"key": "1716", "latitude": 51.148462, "longitude": -2.721853, "name": "The Glastonbury Surgery"}, {"key": "1717", "latitude": 52.343316, "longitude": -0.075654, "name": "The Orchard Surgery"}, {"key": "1719", "latitude": 51.238299, "longitude": -2.993392, "name": "Burnham Medical Centre"}, {"key": "1720", "latitude": 51.112114, "longitude": -2.451749, "name": "The Surgery"}, {"key": "1721", "latitude": 50.747031, "longitude": -1.876102, "name": "Denmark Road Medical Centre"}, {"key": "1722", "latitude": 52.413015, "longitude": -1.555343, "name": "Allesley Park Medical Centre"}, {"key": "1723", "latitude": 54.965707, "longitude": -1.787474, "name": "The Medical Centre"}, {"key": "1724", "latitude": 51.544512, "longitude": -0.104701, "name": "St Pauls Road Medical Centre"}, {"key": "1725", "latitude": 50.846466, "longitude": -1.126882, "name": "Portchester Health Centre"}, {"key": "1726", "latitude": 53.739203, "longitude": -2.452477, "name": "Shadsworth Road Surgery"}, {"key": "1727", "latitude": 55.171694, "longitude": -1.683424, "name": "The Health Centre"}, {"key": "1730", "latitude": 53.021984, "longitude": -2.168792, "name": "Moorcroft Medical Centre"}, {"key": "1731", "latitude": 52.267754, "longitude": -0.342522, "name": "The Surgery"}, {"key": "1736", "latitude": 53.38633, "longitude": -2.972885, "name": "Riverside Centre For Health"}, {"key": "1738", "latitude": 53.38633, "longitude": -2.972885, "name": "Riverside Centre For Health"}, {"key": "1740", "latitude": 54.954718, "longitude": -1.540366, "name": "Pelaw Medical Practice"}, {"key": "1744", "latitude": 51.525559, "longitude": -0.133697, "name": "Gower Place Practice"}, {"key": "1745", "latitude": 51.308093, "longitude": -0.050005, "name": "Elizabeth House Surgery"}, {"key": "1750", "latitude": 53.47569, "longitude": -2.19447, "name": "Five Oaks Family Practice"}, {"key": "1751", "latitude": 51.592339, "longitude": 0.233898, "name": "Oak Lodge Surgery"}, {"key": "1752", "latitude": 51.348974, "longitude": 0.447689, "name": "Halling Medical Centre"}, {"key": "1753", "latitude": 51.484366, "longitude": 0.008766, "name": "The Vanbrugh Group Practice"}, {"key": "1754", "latitude": 50.758437, "longitude": -1.88721, "name": "Leybourne Surgery"}, {"key": "1755", "latitude": 53.300724, "longitude": -2.373072, "name": "The Surgery"}, {"key": "1757", "latitude": 51.544992, "longitude": -0.087357, "name": "The Surgery"}, {"key": "1758", "latitude": 55.012063, "longitude": -1.584058, "name": "The Surgery"}, {"key": "1759", "latitude": 51.782265, "longitude": -1.473765, "name": "Cogges Surgery"}, {"key": "1763", "latitude": 51.483068, "longitude": -2.609541, "name": "Fallodon Way Medical Centre"}, {"key": "1765", "latitude": 52.387714, "longitude": -1.459978, "name": "Willenhall Primary Care Centre"}, {"key": "1766", "latitude": 50.793107, "longitude": 0.051236, "name": "Quayside Medical Practice"}, {"key": "1770", "latitude": 51.485109, "longitude": -2.505301, "name": "Christchurch Practice"}, {"key": "1771", "latitude": 51.521352, "longitude": -0.265589, "name": "The Eastfields Road Surgery"}, {"key": "1773", "latitude": 51.420662, "longitude": -0.176034, "name": "Colliers Wood Surgery"}, {"key": "1774", "latitude": 51.37881, "longitude": -0.412578, "name": "The Fort House Surgery"}, {"key": "1775", "latitude": 55.026967, "longitude": -1.627109, "name": "Brunton Park Health Centre"}, {"key": "1777", "latitude": 51.374927, "longitude": -0.177303, "name": "The Chesser Surgery"}, {"key": "1779", "latitude": 52.159258, "longitude": -2.87187, "name": "The Surgery"}, {"key": "1780", "latitude": 51.555534, "longitude": -0.17103, "name": "The Keats Group Practice"}, {"key": "1781", "latitude": 50.722858, "longitude": -1.971041, "name": "Longfleet House Surgery"}, {"key": "1782", "latitude": 51.540459, "longitude": -2.414237, "name": "West Walk Surgery"}, {"key": "1783", "latitude": 55.00092, "longitude": -1.474775, "name": "Wallsend Road Medical Centre"}, {"key": "1785", "latitude": 51.528299, "longitude": -0.40009, "name": "Yeading Court Surgery"}, {"key": "1786", "latitude": 51.580512, "longitude": -0.436461, "name": "The Surgery"}, {"key": "1787", "latitude": 51.567741, "longitude": -0.393007, "name": "Dr RP Aurora's Practice"}, {"key": "1788", "latitude": 51.566915, "longitude": -0.452005, "name": "Wallasey Medical Centre"}, {"key": "1789", "latitude": 51.548596, "longitude": 0.025253, "name": "Woodgrange Medical Practice"}, {"key": "1792", "latitude": 51.561031, "longitude": -0.123736, "name": "The Northern Medical Centre"}, {"key": "1796", "latitude": 53.509666, "longitude": -2.189031, "name": "St Georges Drive Surgery"}, {"key": "1797", "latitude": 53.411776, "longitude": -0.780581, "name": "Cleveland Surgery"}, {"key": "1798", "latitude": 51.525341, "longitude": -0.386384, "name": "Willow Tree Surgery"}, {"key": "1800", "latitude": 51.358201, "longitude": -0.202341, "name": "The Grove Road Practice"}, {"key": "1801", "latitude": 51.536264, "longitude": -0.027306, "name": "Ruston Street Clinic"}, {"key": "1802", "latitude": 51.548178, "longitude": -0.106926, "name": "The Surgery"}, {"key": "1805", "latitude": 52.0382, "longitude": 0.725792, "name": "Hardwicke House Surgery"}, {"key": "1806", "latitude": 51.545992, "longitude": -0.450725, "name": "The Oakland Medical Centre"}, {"key": "1808", "latitude": 51.525731, "longitude": -0.454699, "name": "The Surgery"}, {"key": "1809", "latitude": 51.55004, "longitude": -0.196578, "name": "Mill Lane Medical Centre"}, {"key": "1810", "latitude": 50.739605, "longitude": -1.876372, "name": "Alma Partnership Alma Medical Centre"}, {"key": "1811", "latitude": 51.441714, "longitude": -0.197596, "name": "Southfields Group Practice"}, {"key": "1815", "latitude": 51.490429, "longitude": -0.434503, "name": "Glendale Medical Centre"}, {"key": "1816", "latitude": 52.676119, "longitude": -1.906218, "name": "Burntwood Health Centre"}, {"key": "1817", "latitude": 53.404424, "longitude": -2.331291, "name": "Dr John Kelly"}, {"key": "1820", "latitude": 51.19741, "longitude": 0.279212, "name": "Warders Medical Centre"}, {"key": "1822", "latitude": 51.455086, "longitude": -0.112449, "name": "Water Lane Surgery"}, {"key": "1823", "latitude": 51.573659, "longitude": -0.081626, "name": "The Surgery"}, {"key": "1824", "latitude": 52.97426, "longitude": -1.162019, "name": "Sherwood Rise Medical Centre"}, {"key": "1825", "latitude": 54.855636, "longitude": -1.573113, "name": "Middle Chare Surgery"}, {"key": "1827", "latitude": 53.750552, "longitude": -2.486748, "name": "Oakenhurst Surgery"}, {"key": "1829", "latitude": 53.50589, "longitude": -2.216154, "name": "Unit 1 Tavistock Square"}, {"key": "1835", "latitude": 50.43492, "longitude": -3.683674, "name": "Leatside Surgery"}, {"key": "1836", "latitude": 52.721883, "longitude": -1.357685, "name": "Long Lane Surgery"}, {"key": "1841", "latitude": 53.76497, "longitude": -2.473916, "name": "Roe Lee Surgery"}, {"key": "1843", "latitude": 51.156457, "longitude": -0.650163, "name": "Witley Surgery"}, {"key": "1846", "latitude": 50.829047, "longitude": -0.173129, "name": "Central Surgery"}, {"key": "1849", "latitude": 51.58038, "longitude": -0.032049, "name": "St James Health Centre"}, {"key": "1850", "latitude": 55.046268, "longitude": -1.451082, "name": "Dr Falconer and Partners"}, {"key": "1855", "latitude": 51.449319, "longitude": -0.018045, "name": "Rushey Green Group Practice"}, {"key": "1857", "latitude": 50.767434, "longitude": -1.901425, "name": "Kinson Road Medical Centre"}, {"key": "1858", "latitude": 51.3789, "longitude": -0.075378, "name": "Stovell House Surgery"}, {"key": "1859", "latitude": 51.507748, "longitude": -0.265111, "name": "The Surgery"}, {"key": "1860", "latitude": 51.40953, "longitude": -0.080922, "name": "Auckland Surgery"}, {"key": "1861", "latitude": 51.462503, "longitude": 0.009418, "name": "Dr Lumb & Partners"}, {"key": "1862", "latitude": 51.310997, "longitude": -0.239555, "name": "Tattenham Health Centre"}, {"key": "1863", "latitude": 51.5005, "longitude": -0.113124, "name": "Waterloo Health Centre"}, {"key": "1868", "latitude": 50.964875, "longitude": -1.310301, "name": "Stokewood Surgery"}, {"key": "1869", "latitude": 50.209958, "longitude": -5.299615, "name": "Veor Surgery"}, {"key": "1872", "latitude": 51.35619, "longitude": -2.629195, "name": "The Surgery"}, {"key": "1874", "latitude": 53.140474, "longitude": -1.556557, "name": "Imperial Road Surgery"}, {"key": "1875", "latitude": 53.728365, "longitude": -2.490874, "name": "Ewood Medical Centre"}, {"key": "1877", "latitude": 50.913111, "longitude": -3.229125, "name": "The Blackdown Practice"}, {"key": "1881", "latitude": 53.192336, "longitude": -2.443972, "name": "The Acorns Surgery"}, {"key": "1883", "latitude": 51.112088, "longitude": -1.054259, "name": "Watercress Medical Group"}, {"key": "1886", "latitude": 51.363489, "longitude": -0.150952, "name": "Park Road Surgery"}, {"key": "1888", "latitude": 51.523949, "longitude": -0.014302, "name": "Devons Road Surgery"}, {"key": "1889", "latitude": 51.501055, "longitude": -0.422843, "name": "Hayes Medical Centre"}, {"key": "1904", "latitude": 52.609929, "longitude": -2.112353, "name": "The Poplars Medical Centre"}, {"key": "1906", "latitude": 52.384384, "longitude": -0.001116, "name": "Parkhall Surgery"}, {"key": "1910", "latitude": 51.622908, "longitude": -0.175285, "name": "Derwent Crescent Medical Centre"}, {"key": "1912", "latitude": 52.263295, "longitude": -0.835728, "name": "Rillwood Medical Centre"}, {"key": "1913", "latitude": 52.513033, "longitude": -1.928196, "name": "The Handsworth Wood Medical Centre"}, {"key": "1916", "latitude": 52.55816, "longitude": -1.823617, "name": "James Preston Health Centre"}, {"key": "1917", "latitude": 53.742584, "longitude": -2.503837, "name": "Redlam Surgery"}, {"key": "1921", "latitude": 51.561005, "longitude": 0.124489, "name": "The Surgery"},